time(millisecond),datetime(utc),latitude,longitude,height_above_takeoff(feet),height_above_ground_at_drone_location(feet),ground_elevation_at_drone_location(feet),altitude_above_seaLevel(feet),height_sonar(feet),speed(mph),distance(feet),mileage(feet),satellites,gpslevel,voltage(v),max_altitude(feet),max_ascent(feet),max_speed(mph),max_distance(feet), xSpeed(mph), ySpeed(mph), zSpeed(mph), compass_heading(degrees), pitch(degrees), roll(degrees),isPhoto,isVideo,rc_elevator,rc_aileron,rc_throttle,rc_rudder,rc_elevator(percent),rc_aileron(percent),rc_throttle(percent),rc_rudder(percent),gimbal_heading(degrees),gimbal_pitch(degrees),gimbal_roll(degrees),battery_percent,voltageCell1,voltageCell2,voltageCell3,voltageCell4,voltageCell5,voltageCell6,current(A),battery_temperature(f),altitude(feet),ascent(feet),flycStateRaw,flycState,message
29500,2023-04-01 05:13:15,35.8244877124373,14.4415486945154,0,Available with any HD 360 subscription,Available with any HD 360 subscription,267.68439931393,0.656168,0,0,0,14,5,0,267.68439931393,0,0,0,0,0,0,96, 3.6, 4.1,0,0,1024,1024,1024,1024,0,0,0,0,95.3,0,0,98,4.328,4.327,0,0,0,0,0,64.94,267.68439931393,0,41,Motors_Started,
29600,2023-04-01 05:13:15,35.8244877391006,14.4415486813673,0,,,267.68439931393,0.656168,0,0.0104768376056,0.0104768376056,14,5,0,267.68439931393,0,0,0.0104768376056,0,0,0,96, 3.5, 4.1,0,0,1024,1024,1024,1024,0,0,0,0,95.3,0,0,98,4.328,4.327,0,0,0,0,0,64.94,267.68439931393,0,41,Motors_Started,"Setting new Return-To-Home altitude to 15m (49 ft). Data Recorder File Index is 48. Setting new Maximum Flight Altitude to 35m (115 ft)"
29700,2023-04-01 05:13:15,35.8244878157799,14.441548672877,0,,,267.68439931393,0.328084,0,0.038244095712,0.038565946116,14,5,0,267.68439931393,0,0,0.038244095712,0,0,0,96, 3.5, 4.1,0,0,1024,1024,1024,1024,0,0,0,0,95.3,0,0,98,4.328,4.327,0,0,0,0,0,64.94,267.68439931393,0,41,Motors_Started,"Aircraft in Warning Zone (Class D Airspace). Fly with caution"
29800,2023-04-01 05:13:15,35.8244878728781,14.441548647877,0,,,267.68439931393,0.328084,0,0.060140749956,0.060671917952,14,5,0,267.68439931393,0,0,0.060140749956,0,0,0,96, 3.6, 4.1,0,0,1024,1024,1024,1024,0,0,0,0,95.3,0,0,98,4.328,4.327,0,0,0,0,0,64.94,267.68439931393,0,41,Motors_Started,
29900,2023-04-01 05:13:16,35.8244879387511,14.4415486066122,0,,,267.68439931393,0.328084,0,0.08656824424,0.08762795556,14,5,0,267.68439931393,0,0,0.08656824424,0,0,0,96, 3.5, 4.1,0,0,1024,1024,1024,1024,0,0,0,0,95.3,0,0,98,4.328,4.327,0,0,0,0,0,64.94,267.68439931393,0,41,Motors_Started,
30000,2023-04-01 05:13:16,35.8244880039393,14.441548526154,0,,,267.68439931393,0.328084,0,0.117438652052,0.121275922516,14,5,0,267.68439931393,0,0,0.117438652052,0,0,0,96, 3.6, 4.1,0,0,1024,1024,1024,1024,0,0,0,0,95.3,0,0,98,4.328,4.327,0,0,0,0,0,64.94,267.68439931393,0,41,Motors_Started,
30100,2023-04-01 05:13:16,35.8244881880516,14.4415482292533,0,,,267.68439931393,0.328084,0,0.221484915224,0.231849416868,14,5,0,267.68439931393,0,0,0.221484915224,0,0,0,96, 3.6, 4.1,0,0,1024,1024,1024,1024,0,0,0,0,95.3,0,0,98,4.328,4.327,0,0,0,0,0,64.94,267.68439931393,0,41,Motors_Started,
30200,2023-04-01 05:13:16,35.8244882208985,14.4415481419504,0,,,267.68439931393,0.328084,0,0.247254273004,0.260320874472,14,5,0,267.68439931393,0,0,0.247254273004,0,0,0,96, 3.5, 4.1,0,0,1024,1024,1024,1024,0,0,0,0,95.3,0,0,98,4.328,4.327,0,0,0,0,0,64.94,267.68439931393,0,41,Motors_Started,
30300,2023-04-01 05:13:16,35.8244882336533,14.4415480657284,0,,,267.68439931393,0.328084,0,0.266013131872,0.283344169172,14,5,0,267.68439931393,0,0,0.266013131872,0,0,0,96, 3.5, 4.1,0,0,1024,1024,1024,1024,0,0,0,0,95.3,0,0,98,4.328,4.327,0,0,0,0,0,64.94,267.68439931393,0,41,Motors_Started,
30400,2023-04-01 05:13:16,35.8244882311854,14.4415480047061,0,,,267.68439931393,0.328084,0,0.278321531216,0.301418644816,14,5,0,267.68439931393,0,0,0.278321531216,0,0,0,96, 3.6, 4.1,0,0,1024,1024,1024,1024,0,0,0,0,95.3,0,0,98,4.328,4.327,0,0,0,0,0,64.94,267.68439931393,0,41,Motors_Started,
30500,2023-04-01 05:13:16,35.8244882219684,14.4415479491401,0,,,267.68439931393,0.328084,0,0.288409458048,0.318196860576,14,5,0,267.68439931393,0,0,0.288409458048,0,0,0,96, 3.6, 4.1,0,0,1024,1024,1024,1024,0,0,0,0,95.3,0,0,98,4.328,4.327,0,0,0,0,0,64.94,267.68439931393,0,41,Motors_Started,
30600,2023-04-01 05:13:16,35.8244880991772,14.4415478647626,0,,,267.68439931393,0.328084,0,0.283127305648,0.36948163912,14,5,0,267.68439931393,0,0,0.288409458048,0,0,0,96.8, 3.5, 4.1,0,0,1024,1024,1024,1024,0,0,0,0,95.3,0,0,98,4.328,4.327,0,0,0,0,0,64.94,267.68439931393,0,11,AutoTakeoff,
30700,2023-04-01 05:13:16,35.8244881347657,14.4415478145533,0,,,267.68439931393,0.328084,0,0.30250000968,0.38920933004,14,5,0,267.68439931393,0,0,0.30250000968,0,0,0,96.7, 3.5, 4.1,0,0,1024,1024,1024,1024,0,0,0,0,95.3,0,0,98,4.328,4.327,0,0,0,0,0,64.94,267.68439931393,0,11,AutoTakeoff,
30800,2023-04-01 05:13:16,35.8244881538262,14.441547738112,0,,,267.68439931393,0.328084,0,0.325549223016,0.41286746728,14,5,8.656,267.68439931393,0,0,0.325549223016,0,0,0,96.7, 3.4, 4.1,0,0,1024,1024,1024,1024,0,0,0,0,95.3,0,0,98,4.297,4.297,0,0,0,0,0.606,64.94,267.68439931393,0,11,AutoTakeoff,
30900,2023-04-01 05:13:17,35.8244881594846,14.441547636595,0,,,267.68439931393,0.328084,0,0.35291011628,0.44296917428,14,5,8.656,267.68439931393,0,0,0.35291011628,0,0,0,96.6, 3.4, 4.1,0,0,1024,1024,1024,1024,0,0,0,0,95.3,0,0,98,4.297,4.297,0,0,0,0,0.606,64.94,267.68439931393,0,11,AutoTakeoff,
31000,2023-04-01 05:13:17,35.8244881028592,14.4415475192197,0,,,267.68439931393,0.328084,0,0.37573163932,0.48337599972,14,5,8.656,267.68439931393,0,0,0.37573163932,0,0,0,96, 3.1, 4,0,0,1024,1024,1024,1024,0,0,0,0,95.3,0,0,98,4.297,4.297,0,0,0,0,0.606,64.94,267.68439931393,0,11,AutoTakeoff,
31100,2023-04-01 05:13:17,35.8244880576271,14.4415474273867,0,,,267.68439931393,0.328084,0,0.3954396452,0.51516077764,14,5,8.656,267.68439931393,0,0,0.3954396452,0,0,0,94.9, -0.2, 3.7,0,0,1024,1024,1024,1024,0,0,0,0,95.3,0,0,98,4.297,4.297,0,0,0,0,0.606,64.94,267.68439931393,0,11,AutoTakeoff,
31200,2023-04-01 05:13:17,35.8244879684885,14.4415473646276,0,,,267.68439931393,0.328084,0.223694,0.40435368748,0.5526082854,14,5,8.656,267.68439931393,0,0.223694,0.40435368748,-0.223694,0,-0.223694,93.8, -3, 2.2,0,0,1024,1024,1024,1024,0,0,0,0,95.2,0,0,98,4.297,4.297,0,0,0,0,0.606,64.94,267.68439931393,0,11,AutoTakeoff,
31300,2023-04-01 05:13:17,35.8244878265488,14.441547353363,0,,,267.68439931393,0.328084,0.223694,0.39892389728,0.60450133168,14,5,8.656,267.68439931393,0,0.223694,0.40435368748,-0.223694,0,-0.447388,93.7, -0.9, -0.4,0,0,1024,1024,1024,1024,0,0,0,0,95.1,0,0,98,4.297,4.297,0,0,0,0,0.606,64.94,267.68439931393,0,11,AutoTakeoff,
31400,2023-04-01 05:13:17,35.8244876574533,14.4415474290807,0,,,267.68439931393,0.656168,0.3131716,0.3748851826,0.67013781672,14,5,8.656,267.68439931393,0,0.3131716,0.40435368748,-0.223694,0.223694,-0.894776,93.5, 0.1, -2.1,0,0,1024,1024,1024,1024,0,0,0,0,94.9,0,0,98,4.297,4.297,0,0,0,0,0.606,64.94,267.68439931393,0,11,AutoTakeoff,
31500,2023-04-01 05:13:17,35.8244875517379,14.4415474755503,0,,,267.68439931393,0.656168,0.3131716,0.36533465736,0.71108269992,14,5,8.656,267.68439931393,0,0.3131716,0.40435368748,-0.223694,0.223694,-1.342164,93.7, -0.3, -0.6,0,0,1024,1024,1024,1024,0,0,0,0,94.8,0,0,98,4.297,4.297,0,0,0,0,0.606,64.94,267.68439931393,0,11,AutoTakeoff,
31600,2023-04-01 05:13:17,35.8244874446857,14.4415475866332,0.328084,,,268.01248331393,0.984252,0.3131716,0.34198819992,0.76212600864,14,5,8.656,268.01248331393,0.328084,0.3131716,0.40435368748,-0.223694,0.223694,-1.565858,93.6, 2, 0.2,0,0,1024,1024,1024,1024,0,0,0,0,94.7,0,0,98,4.297,4.297,0,0,0,0,0.606,64.94,268.01248331393,0.328084,11,AutoTakeoff,
31700,2023-04-01 05:13:17,35.8244873210151,14.4415477707176,0.656168,,,268.34056731393,0.984252,0.4921268,0.308347122728,0.83284779568,13,5,8.656,268.34056731393,0.656168,0.4921268,0.40435368748,-0.223694,0.447388,-1.789552,93.7, 3.5, 0,0,0,1024,1024,1024,1024,0,0,0,0,94.6,0,0,98,4.297,4.297,0,0,0,0,0.606,64.94,268.34056731393,0.656168,11,AutoTakeoff,
31800,2023-04-01 05:13:18,35.8244869711162,14.4415481812791,0.984252,,,268.66865131393,1.312336,0.447388,0.310170941684,1.00905186956,13,5,8.6,268.66865131393,0.984252,0.4921268,0.40435368748,0,0.447388,-2.013246,93.9, 3.8, -2.9,0,0,1024,1024,1024,1024,0,0,0,0,94.5,0,0,98,4.175,4.17,0,0,0,0,1.117,64.94,268.66865131393,0.984252,11,AutoTakeoff,
31900,2023-04-01 05:13:18,35.824486816136,14.4415484900585,1.312336,,,268.99673531393,1.64042,0.447388,0.3325623466,1.11648297536,13,5,8.6,268.99673531393,1.312336,0.4921268,0.40435368748,0,0.447388,-2.23694,93.9, 4.6, -1.3,0,0,1024,1024,1024,1024,0,0,0,0,94.5,0,0,98,4.175,4.17,0,0,0,0,1.117,64.94,268.99673531393,1.312336,11,AutoTakeoff,
32000,2023-04-01 05:13:18,35.824486786594,14.4415487749958,1.968504,,,269.65290331393,1.968504,0.447388,0.3386319006,1.2014600122,13,5,8.6,269.65290331393,1.968504,0.4921268,0.40435368748,0,0.447388,-2.23694,93.8, 5.9, 0.7,0,0,1024,1024,1024,1024,0,0,0,0,94.4,0,0,98,4.175,4.17,0,0,0,0,1.117,64.94,269.65290331393,1.968504,11,AutoTakeoff,
32100,2023-04-01 05:13:18,35.8244868112621,14.4415490514613,2.296588,,,269.98098731393,2.296588,0.223694,0.34533465672,1.28374019856,13,5,8.6,269.98098731393,2.296588,0.4921268,0.40435368748,0,0.223694,-2.23694,93.6, 6.6, 0.6,0,0,1024,1024,1024,1024,0,0,0,0,94.3,0,0,98,4.175,4.17,0,0,0,0,1.117,64.94,269.98098731393,2.296588,11,AutoTakeoff,
32200,2023-04-01 05:13:18,35.8244868153519,14.4415492334119,2.624672,,,270.30907131393,2.624672,0.223694,0.36406169144,1.33758534464,13,5,8.6,270.30907131393,2.624672,0.4921268,0.40435368748,0,0.223694,-2.23694,94.1, 6.7, 1.4,0,0,1024,1024,1024,1024,0,0,0,0,94.3,0,0,98,4.175,4.17,0,0,0,0,1.117,64.94,270.30907131393,2.624672,11,AutoTakeoff,
32300,2023-04-01 05:13:18,35.8244869392936,14.4415492627812,3.28084,,,270.96523931393,2.952756,0.223694,0.32837599476,1.38363193404,13,5,8.6,270.96523931393,3.28084,0.4921268,0.40435368748,0,0.223694,-2.013246,94.1, 5.4, -0.4,0,0,1024,1024,1024,1024,0,0,0,0,94.2,0,0,98,4.175,4.17,0,0,0,0,1.117,64.94,270.96523931393,3.28084,6,P-GPS,
32400,2023-04-01 05:13:18,35.8244869193354,14.4415493794111,3.608924,,,271.29332331393,3.28084,0,0.35324476196,1.41889440236,13,5,8.6,271.29332331393,3.608924,0.4921268,0.40435368748,0,0,-1.565858,94.6, 4.6, -1.7,0,0,1024,1024,1024,1024,0,0,0,0,94.2,0,0,98,4.175,4.17,0,0,0,0,1.117,64.94,271.29332331393,3.608924,6,P-GPS,
32500,2023-04-01 05:13:18,35.8244869223354,14.4415495074913,3.608924,,,271.29332331393,3.608924,0,0.37541667868,1.45680122772,13,5,8.6,271.29332331393,3.608924,0.4921268,0.40435368748,0,0,-1.11847,95, 4.2, -2.5,0,0,1024,1024,1024,1024,0,0,0,0,94.2,0,0,98,4.175,4.17,0,0,0,0,1.117,64.94,271.29332331393,3.608924,6,P-GPS,
32600,2023-04-01 05:13:18,35.8244868968942,14.4415495559258,3.937008,,,271.62140731393,3.608924,0,0.39175526188,1.47387143824,13,5,8.6,271.62140731393,3.937008,0.4921268,0.40435368748,0,0,-0.671082,94.9, 4.5, -3,0,0,1024,1024,1024,1024,0,0,0,0,94.2,0,0,98,4.175,4.17,0,0,0,0,1.117,64.94,271.62140731393,3.937008,6,P-GPS,
32700,2023-04-01 05:13:18,35.8244869277235,14.4415493776742,3.937008,,,271.62140731393,3.608924,0.223694,0.35044620544,1.5277887628,13,5,8.6,271.62140731393,3.937008,0.4921268,0.40435368748,0,0.223694,-0.223694,94.6, 4.9, -2.9,0,0,1024,1024,1024,1024,0,0,0,0,94.2,0,0,98,4.175,4.17,0,0,0,0,1.117,64.94,271.62140731393,3.937008,6,P-GPS,
32800,2023-04-01 05:13:18,35.8244869649477,14.441549524647,4.265092,,,271.94949131393,3.937008,0.223694,0.36699148156,1.57333994536,13,5,8.445,271.94949131393,4.265092,0.4921268,0.40435368748,0,0.223694,0,95, 4.3, -1,0,0,1024,1024,1024,1024,0,0,0,0,94.2,0,0,98,4.204,4.199,0,0,0,0,2.91,64.94,271.94949131393,4.265092,6,P-GPS,
32900,2023-04-01 05:13:19,35.8244870328538,14.4415497471325,4.265092,,,271.94949131393,3.937008,0.223694,0.398047913,1.64366475076,14,5,8.445,271.94949131393,4.265092,0.4921268,0.40435368748,0,0.223694,0,95, 5.5, -0.8,0,0,1024,1024,1024,1024,0,0,0,0,94.2,0,0,98,4.204,4.199,0,0,0,0,2.91,64.94,271.94949131393,4.265092,6,P-GPS,
33000,2023-04-01 05:13:19,35.824487129973,14.4415499651162,4.593176,,,272.27757531393,3.937008,0.223694,0.4317913524,1.71724414944,14,5,8.445,272.27757531393,4.593176,0.4921268,0.4317913524,0,0.223694,0,95, 5.4, -0.8,0,0,1024,1024,1024,1024,0,0,0,0,94.2,0,0,98,4.204,4.199,0,0,0,0,2.91,64.94,272.27757531393,4.593176,6,P-GPS,
33100,2023-04-01 05:13:19,35.8244874085366,14.4415504153427,4.593176,,,272.27757531393,3.937008,0.223694,0.520997392,1.88478024404,14,5,8.445,272.27757531393,4.593176,0.4921268,0.520997392,0,0.223694,0,95.1, 6.5, -0.9,0,0,1024,1024,1024,1024,0,0,0,0,94.2,0,0,98,4.204,4.199,0,0,0,0,2.91,64.94,272.27757531393,4.593176,6,P-GPS,
33200,2023-04-01 05:13:19,35.8244875135257,14.4415506227364,4.593176,,,272.27757531393,3.937008,0.223694,0.57501314176,1.95710964268,14,5,8.445,272.27757531393,4.593176,0.4921268,0.57501314176,0,0.223694,0,95.1, 6.7, -0.4,0,0,1024,1024,1024,1024,0,0,0,0,94.2,0,0,98,4.204,4.199,0,0,0,0,2.91,64.94,272.27757531393,4.593176,6,P-GPS,
33300,2023-04-01 05:13:19,35.8244876081822,14.4415508180821,4.593176,,,272.27757531393,3.937008,0.223694,0.62935369468,2.02443247948,14,5,8.445,272.27757531393,4.593176,0.4921268,0.62935369468,0,0.223694,0,95.1, 6.4, 0.3,0,0,1024,1024,1024,1024,0,0,0,0,94.2,0,0,98,4.204,4.199,0,0,0,0,2.91,64.94,272.27757531393,4.593176,6,P-GPS,
33400,2023-04-01 05:13:19,35.8244876821804,14.441551011525,4.593176,,,272.27757531393,3.937008,0.223694,0.68551839464,2.08770675972,14,5,8.445,272.27757531393,4.593176,0.4921268,0.68551839464,0,0.223694,0,95.2, 7.1, 1,0,0,1024,1024,1024,1024,0,0,0,0,94.2,0,0,98,4.204,4.199,0,0,0,0,2.91,64.94,272.27757531393,4.593176,6,P-GPS,
33500,2023-04-01 05:13:19,35.8244875691582,14.4415513197496,4.92126,,,272.60565931393,3.937008,0,0.77836616664,2.18777566056,14,5,8.445,272.60565931393,4.92126,0.4921268,0.77836616664,0,0,0,94.9, 7.2, 1.8,0,0,1024,1024,1024,1024,0,0,0,0,94.2,0,0,98,4.204,4.199,0,0,0,0,2.91,64.94,272.60565931393,4.92126,6,P-GPS,
33600,2023-04-01 05:13:19,35.8244876316774,14.4415514306028,4.92126,,,272.60565931393,3.937008,0,0.80993768996,2.2277231684,14,5,8.445,272.60565931393,4.92126,0.4921268,0.80993768996,0,0,0,95.2, 6.6, 0,0,0,1024,1024,1024,1024,0,0,0,0,94.2,0,0,98,4.204,4.199,0,0,0,0,2.91,64.94,272.60565931393,4.92126,6,P-GPS,
33700,2023-04-01 05:13:19,35.8244877015914,14.4415514955665,4.92126,,,272.60565931393,3.937008,0,0.82862863544,2.25965886496,14,5,8.445,272.60565931393,4.92126,0.4921268,0.82862863544,0,0,0,95.2, 4.9, 2.2,0,0,1024,1024,1024,1024,0,0,0,0,94.2,0,0,98,4.204,4.199,0,0,0,0,2.91,64.94,272.60565931393,4.92126,6,P-GPS,
33800,2023-04-01 05:13:20,35.8244877004706,14.441551537148,4.92126,,,272.60565931393,3.937008,0,0.84093178544,2.27196857664,14,5,8.357,272.60565931393,4.92126,0.4921268,0.84093178544,0,0,0,95.3, 5.5, -0.2,0,0,1024,1024,1024,1024,0,0,0,0,94.2,0,0,98,4.181,4.174,0,0,0,0,4.689,65.12,272.60565931393,4.92126,6,P-GPS,
33900,2023-04-01 05:13:20,35.8244876439115,14.4415515577259,4.92126,,,272.60565931393,3.937008,0,0.84737863604,2.29348104452,14,5,8.357,272.60565931393,4.92126,0.4921268,0.84737863604,0,0,0,95, 4.9, -1,0,0,1024,1024,1024,1024,0,0,0,0,94.2,0,0,98,4.181,4.174,0,0,0,0,4.689,65.12,272.60565931393,4.92126,6,P-GPS,
34000,2023-04-01 05:13:20,35.8244874114971,14.441551526207,4.92126,,,272.60565931393,3.937008,0,0.8448491084,2.3787894462,14,5,8.357,272.60565931393,4.92126,0.4921268,0.84737863604,0,0,0,95, 3.6, -2.6,0,0,1024,1024,1024,1024,0,0,0,0,94.2,0,0,98,4.181,4.174,0,0,0,0,4.689,65.12,272.60565931393,4.92126,6,P-GPS,
34100,2023-04-01 05:13:20,35.8244873912059,14.441551440552,4.92126,,,272.60565931393,3.937008,0,0.82075790028,2.40518708484,14,5,8.357,272.60565931393,4.92126,0.4921268,0.84737863604,0,0,0,95.2, 3.6, -1.7,0,0,1024,1024,1024,1024,0,0,0,0,94.2,0,0,98,4.181,4.174,0,0,0,0,4.689,65.12,272.60565931393,4.92126,6,P-GPS,
34200,2023-04-01 05:13:20,35.8244874180158,14.4415513569317,4.92126,,,272.60565931393,3.937008,0,0.79490160024,2.43178813556,14,5,8.357,272.60565931393,4.92126,0.4921268,0.84737863604,0,0,0,95.1, 3.9, -1.6,0,0,1024,1024,1024,1024,0,0,0,0,94.2,0,0,98,4.181,4.174,0,0,0,0,4.689,65.12,272.60565931393,4.92126,6,P-GPS,
34300,2023-04-01 05:13:20,35.8244874977343,14.4415512900913,4.92126,,,272.60565931393,3.937008,0,0.77182089084,2.46695874036,14,5,8.357,272.60565931393,4.92126,0.4921268,0.84737863604,0,0,0,95.2, 5, 0,0,0,1024,1024,1024,1024,0,0,0,0,94.2,0,0,98,4.181,4.174,0,0,0,0,4.689,65.12,272.60565931393,4.92126,6,P-GPS,
34400,2023-04-01 05:13:20,35.8244874135128,14.4415509686643,4.92126,,,272.60565931393,3.937008,0,0.68153217404,2.56688656508,14,5,8.357,272.60565931393,4.92126,0.4921268,0.84737863604,0,0,0,95.3, 4.9, -0.7,0,0,1024,1024,1024,1024,0,0,0,0,94.2,0,0,98,4.181,4.174,0,0,0,0,4.689,65.12,272.60565931393,4.92126,6,P-GPS,
34500,2023-04-01 05:13:20,35.8244874704212,14.4415509401859,4.92126,,,272.60565931393,3.937008,0,0.67016734428,2.58929470228,14,5,8.357,272.60565931393,4.92126,0.4921268,0.84737863604,0,0,0,95.2, 5, 0.8,0,0,1024,1024,1024,1024,0,0,0,0,94.2,0,0,98,4.181,4.174,0,0,0,0,4.689,65.12,272.60565931393,4.92126,6,P-GPS,"Home Point updated. RTH altitude adjusted to 15 m (Code: 120852)"
34600,2023-04-01 05:13:20,35.8244875765713,14.441550978176,4.92126,,,272.60565931393,3.937008,0.223694,0.6773786306,2.62961950672,14,5,8.357,272.60565931393,4.92126,0.4921268,0.84737863604,0.223694,0,0,95, 5.4, 1,0,0,1024,1024,1024,1024,0,0,0,0,94.2,0,0,98,4.181,4.174,0,0,0,0,4.689,65.12,272.60565931393,4.92126,6,P-GPS,
34700,2023-04-01 05:13:20,35.8244877126347,14.4415510606279,4.92126,,,272.60565931393,3.937008,0,0.69995409064,2.68493118828,14,5,8.357,272.60565931393,4.92126,0.4921268,0.84737863604,0,0,0,95, 6, 1.6,0,0,1024,1024,1024,1024,0,0,0,0,94.2,0,0,98,4.181,4.174,0,0,0,0,4.689,65.12,272.60565931393,4.92126,6,P-GPS,
34800,2023-04-01 05:13:20,35.8244878790275,14.4415514249481,4.92126,,,272.60565931393,3.937008,0,0.81001314928,2.8086286988,14,5,8.357,272.60565931393,4.92126,0.4921268,0.84737863604,0,0,0,94.8, 5.9, 1.5,0,0,1024,1024,1024,1024,0,0,0,0,94.2,0,0,98,4.181,4.174,0,0,0,0,4.689,65.12,272.60565931393,4.92126,6,P-GPS,
34900,2023-04-01 05:13:21,35.824487934774,14.4415515421004,4.92126,,,272.60565931393,3.937008,0,0.84628283548,2.84881242712,14,5,8.357,272.60565931393,4.92126,0.4921268,0.84737863604,0,0,0,95.1, 6, 0.4,0,0,1024,1024,1024,1024,0,0,0,0,94.2,0,0,98,4.181,4.174,0,0,0,0,4.689,65.12,272.60565931393,4.92126,6,P-GPS,
35000,2023-04-01 05:13:21,35.8244879763808,14.4415515832749,4.92126,,,272.60565931393,3.937008,0,0.85997706164,2.86827437,14,5,8.378,272.60565931393,4.92126,0.4921268,0.85997706164,0,0,0,95.3, 6.1, -0.2,0,0,1024,1024,1024,1024,0,0,0,0,94.2,0,0,98,4.186,4.179,0,0,0,0,4.183,65.12,272.60565931393,4.92126,6,P-GPS,
35100,2023-04-01 05:13:21,35.8244880281571,14.4415515728453,4.92126,,,272.60565931393,3.937008,0,0.85923887264,2.88741479056,14,5,8.378,272.60565931393,4.92126,0.4921268,0.85997706164,0,0,0,95.3, 5.7, -0.7,0,0,1024,1024,1024,1024,0,0,0,0,94.2,0,0,98,4.186,4.179,0,0,0,0,4.183,65.12,272.60565931393,4.92126,6,P-GPS,
35200,2023-04-01 05:13:21,35.8244879783894,14.4415514668884,4.92126,,,272.60565931393,3.937008,0,0.82585632564,2.92364182584,14,5,8.378,272.60565931393,4.92126,0.4921268,0.85997706164,0,0,0,95.3, 5.3, 0.6,0,0,1024,1024,1024,1024,0,0,0,0,94.2,0,0,98,4.186,4.179,0,0,0,0,4.183,65.12,272.60565931393,4.92126,6,P-GPS,
35300,2023-04-01 05:13:21,35.8244880011319,14.4415514235914,4.92126,,,272.60565931393,3.937008,0,0.81416997356,2.93890101268,14,5,8.378,272.60565931393,4.92126,0.4921268,0.85997706164,0,0,0,95.2, 4.2, 0,0,0,1024,1024,1024,1024,0,0,0,0,94.2,0,0,98,4.186,4.179,0,0,0,0,4.183,65.12,272.60565931393,4.92126,6,P-GPS,
35400,2023-04-01 05:13:21,35.8244880135614,14.4415513551696,4.92126,,,272.60565931393,3.937008,0,0.7947178732,2.95964248316,14,5,8.378,272.60565931393,4.92126,0.4921268,0.85997706164,0,0,0,95.1, 4.1, 0.9,0,0,1024,1024,1024,1024,0,0,0,0,94.2,0,0,98,4.186,4.179,0,0,0,0,4.183,65.12,272.60565931393,4.92126,6,P-GPS,
35500,2023-04-01 05:13:21,35.824488021895,14.4415512680327,4.92126,,,272.60565931393,3.937008,0,0.7696358514,2.98560048924,14,5,8.378,272.60565931393,4.92126,0.4921268,0.85997706164,0,0,0,95.2, 4.1, 0.9,0,0,1024,1024,1024,1024,0,0,0,0,94.2,0,0,98,4.186,4.179,0,0,0,0,4.183,65.12,272.60565931393,4.92126,6,P-GPS,
35600,2023-04-01 05:13:21,35.8244880683317,14.4415511952138,4.92126,,,272.60565931393,3.937008,0,0.75107942036,3.01300534576,14,5,8.378,272.60565931393,4.92126,0.4921268,0.85997706164,0,0,0,95.1, 3.8, 0.6,0,0,1024,1024,1024,1024,0,0,0,0,94.2,0,0,98,4.186,4.179,0,0,0,0,4.183,65.12,272.60565931393,4.92126,6,P-GPS,
35700,2023-04-01 05:13:21,35.8244880973383,14.4415510602511,4.593176,,,272.27757531393,3.937008,0,0.71379267376,3.05431112136,14,5,8.378,272.60565931393,4.92126,0.4921268,0.85997706164,0,0,0,94.9, 3.6, 1.2,0,0,1024,1024,1024,1024,0,0,0,0,94,-7,0,98,4.186,4.179,0,0,0,0,4.183,65.12,272.27757531393,4.593176,6,P-GPS,
35800,2023-04-01 05:13:21,35.8244882232565,14.4415510461549,4.92126,,,272.60565931393,3.937008,0,0.72020671596,3.10043973176,14,5,8.378,272.60565931393,4.92126,0.4921268,0.85997706164,0,0,0,94.9, 4, 1.7,0,0,1024,1024,1024,1024,0,0,0,0,93.9,-24.1,0,98,4.186,4.179,0,0,0,0,4.183,65.12,272.60565931393,4.92126,6,P-GPS,
35900,2023-04-01 05:13:22,35.8244883896912,14.4415510557158,4.92126,,,272.60565931393,3.937008,0,0.74091865888,3.16123041612,14,5,8.378,272.60565931393,4.92126,0.4921268,0.85997706164,0,0,0,94.8, 3.7, 2,0,0,1024,1024,1024,1024,0,0,0,0,93.8,-42,0,98,4.186,4.179,0,0,0,0,4.183,65.12,272.60565931393,4.92126,6,P-GPS,
36000,2023-04-01 05:13:22,35.8244885174406,14.4415510849774,4.92126,,,272.60565931393,3.937008,0,0.76572509012,3.20863527328,14,5,8.353,272.60565931393,4.92126,0.4921268,0.85997706164,0,0,0,94.8, 3.8, 2.5,0,0,1024,1024,1024,1024,0,0,0,0,93.8,-60,0,98,4.187,4.184,0,0,0,0,4.258,65.12,272.60565931393,4.92126,6,P-GPS,
36100,2023-04-01 05:13:22,35.824488708736,14.4415512785239,4.92126,,,272.60565931393,3.937008,0,0.8464403158,3.2989174284,14,5,8.353,272.60565931393,4.92126,0.4921268,0.85997706164,0,0,0,94.9, 4.2, 3.9,0,0,1024,1024,1024,1024,0,0,0,0,93.7,-78.2,0,98,4.187,4.184,0,0,0,0,4.258,65.12,272.60565931393,4.92126,6,P-GPS,
36200,2023-04-01 05:13:22,35.8244887864095,14.4415512870561,4.92126,,,272.60565931393,3.937008,0,0.8612369042,3.3273623112,14,5,8.353,272.60565931393,4.92126,0.4921268,0.8612369042,0,0,0,95.1, 4, 4.1,0,0,1024,1024,1024,1024,0,0,0,0,93.8,-89.8,0,98,4.187,4.184,0,0,0,0,4.258,65.12,272.60565931393,4.92126,6,P-GPS,
36300,2023-04-01 05:13:22,35.8244888357477,14.4415512605039,4.92126,,,272.60565931393,3.937008,0,0.86265750792,3.3470145428,14,5,8.353,272.60565931393,4.92126,0.4921268,0.86265750792,0,0,0,95, 3.4, 0.3,0,0,1024,1024,1024,1024,0,0,0,0,93.9,-90,0,98,4.187,4.184,0,0,0,0,4.258,65.12,272.60565931393,4.92126,6,P-GPS,
36400,2023-04-01 05:13:22,35.8244888664516,14.4415512365355,4.92126,,,272.60565931393,3.937008,0,0.86184057876,3.3602691364,14,5,8.353,272.60565931393,4.92126,0.4921268,0.86265750792,0,0,0,94.9, 3, 0,0,0,1024,1024,1024,1024,0,0,0,0,93.8,-90,0,98,4.187,4.184,0,0,0,0,4.258,65.12,272.60565931393,4.92126,6,P-GPS,
36500,2023-04-01 05:13:22,35.8244888912597,14.4415511880238,4.92126,,,272.60565931393,3.937008,0,0.8538714184,3.3772310792,14,5,8.353,272.60565931393,4.92126,0.4921268,0.86265750792,0,0,0,94.8, 3.1, 1.6,0,0,1024,1024,1024,1024,0,0,0,0,93.9,-90,0,98,4.187,4.184,0,0,0,0,4.258,65.12,272.60565931393,4.92126,6,P-GPS,
36600,2023-04-01 05:13:22,35.8244889261186,14.4415511810109,4.92126,,,272.60565931393,3.937008,0,0.85856958128,3.3901247804,14,5,8.353,272.60565931393,4.92126,0.4921268,0.86265750792,0,0,0,94.6, 3.7, 1.2,0,0,1024,1024,1024,1024,0,0,0,0,93.9,-90,0,98,4.187,4.184,0,0,0,0,4.258,65.12,272.60565931393,4.92126,6,P-GPS,
36700,2023-04-01 05:13:22,35.8244889595123,14.4415511869461,4.92126,,,272.60565931393,3.937008,0,0.86641078888,3.4024279304,14,5,8.353,272.60565931393,4.92126,0.4921268,0.86641078888,0,0,0,94.8, 4.1, 0.7,0,0,1024,1024,1024,1024,0,0,0,0,93.9,-90,0,98,4.187,4.184,0,0,0,0,4.258,65.12,272.60565931393,4.92126,6,P-GPS,
36800,2023-04-01 05:13:23,35.8244889558108,14.4415512049652,4.92126,,,272.60565931393,3.937008,0,0.87024609084,3.4079069332,14,5,8.353,272.60565931393,4.92126,0.4921268,0.87024609084,0,0,0,94.6, 4, 2.1,0,0,1024,1024,1024,1024,0,0,0,0,93.9,-90,0,98,4.187,4.184,0,0,0,0,4.258,65.12,272.60565931393,4.92126,6,P-GPS,
36900,2023-04-01 05:13:23,35.8244888341404,14.4415512465987,4.92126,,,272.60565931393,3.937008,0,0.85875987,3.4540027352,14,5,8.353,272.60565931393,4.92126,0.4921268,0.87024609084,0,0,0,94.7, 3.6, 1.7,0,0,1024,1024,1024,1024,0,0,0,0,93.9,-90,0,98,4.187,4.184,0,0,0,0,4.258,65.12,272.60565931393,4.92126,6,P-GPS,
37000,2023-04-01 05:13:23,35.8244887820412,14.4415512325132,4.593176,,,272.27757531393,3.937008,0,0.84616472524,3.4734581164,14,5,8.359,272.60565931393,4.92126,0.4921268,0.87024609084,0,0,0,94.7, 3.5, -1.1,0,0,1024,1024,1024,1024,0,0,0,0,93.8,-90,0,98,4.187,4.183,0,0,0,0,4.108,65.12,272.27757531393,4.593176,6,P-GPS,
37100,2023-04-01 05:13:23,35.8244887568325,14.4415512135072,4.593176,,,272.27757531393,3.937008,0,0.83695212652,3.4842192716,14,5,8.359,272.60565931393,4.92126,0.4921268,0.87024609084,0,0,0,94.4, 3.4, -1.6,0,0,1024,1024,1024,1024,0,0,0,0,93.9,-90,0,98,4.187,4.183,0,0,0,0,4.108,65.12,272.27757531393,4.593176,6,P-GPS,
37200,2023-04-01 05:13:23,35.8244887488018,14.4415512133148,4.593176,,,272.27757531393,3.937008,0,0.83557417372,3.4871720276,14,5,8.359,272.60565931393,4.92126,0.4921268,0.87024609084,0,0,0,94.7, 3.1, 0.6,0,0,1024,1024,1024,1024,0,0,0,0,93.9,-90,0,98,4.187,4.183,0,0,0,0,4.108,65.12,272.27757531393,4.593176,6,P-GPS,
37300,2023-04-01 05:13:23,35.8244887263594,14.4415512374431,4.593176,,,272.27757531393,3.937008,0,0.83829727092,3.498031608,14,5,8.359,272.60565931393,4.92126,0.4921268,0.87024609084,0,0,0,94.8, 3.6, 0.9,0,0,1024,1024,1024,1024,0,0,0,0,93.9,-90,0,98,4.187,4.183,0,0,0,0,4.108,65.12,272.27757531393,4.593176,6,P-GPS,
37400,2023-04-01 05:13:23,35.8244886428972,14.4415512206825,4.593176,,,272.27757531393,3.937008,0,0.82079727036,3.528871504,14,5,8.359,272.60565931393,4.92126,0.4921268,0.87024609084,0,0,0,94.8, 4.1, -0.5,0,0,1024,1024,1058,1024,0,0,5,0,93.9,-90,0,98,4.187,4.183,0,0,0,0,4.108,65.12,272.27757531393,4.593176,6,P-GPS,
37500,2023-04-01 05:13:23,35.824488531396,14.4415512967223,4.593176,,,272.27757531393,3.608924,0,0.82575133876,3.5753610068,13,5,8.359,272.60565931393,4.92126,0.4921268,0.87024609084,0,0,0,95, 4.2, 0.2,0,0,1024,1024,1085,1024,0,0,9,0,93.9,-90,0,98,4.187,4.183,0,0,0,0,4.108,65.12,272.27757531393,4.593176,6,P-GPS,
37600,2023-04-01 05:13:23,35.8244884638722,14.4415514270578,4.593176,,,272.27757531393,3.608924,0,0.85357942364,3.6211287248,13,5,8.359,272.60565931393,4.92126,0.4921268,0.87024609084,0,0,0,94.9, 4.8, -1,0,0,1024,1024,1085,1024,0,0,9,0,93.9,-90,0,98,4.187,4.183,0,0,0,0,4.108,65.12,272.27757531393,4.593176,6,P-GPS,
37700,2023-04-01 05:13:23,35.8244884429548,14.4415515898308,4.593176,,,272.27757531393,3.608924,0,0.89701774524,3.6698820072,13,5,8.359,272.60565931393,4.92126,0.4921268,0.89701774524,0,0,0,94.8, 4, -0.5,0,0,1024,1024,1263,1024,0,0,36,0,93.9,-89.9,0,98,4.187,4.183,0,0,0,0,4.108,65.12,272.27757531393,4.593176,6,P-GPS,
37800,2023-04-01 05:13:23,35.8244884473365,14.4415516234789,4.593176,,,272.27757531393,3.937008,0,0.90699806052,3.679954186,13,5,8.359,272.60565931393,4.92126,0.4921268,0.90699806052,0,0,-0.223694,95, 4.1, 1.2,0,0,1024,1024,1355,1024,0,0,50,0,93.9,-89.9,0,98,4.187,4.183,0,0,0,0,4.108,65.12,272.27757531393,4.593176,6,P-GPS,
37900,2023-04-01 05:13:24,35.8244884587023,14.4415515642786,4.593176,,,272.27757531393,3.937008,0,0.89154202328,3.6979331892,13,5,8.359,272.60565931393,4.92126,0.4921268,0.90699806052,0,0,-0.671082,94.7, 4.5, 0.2,0,0,1024,1024,1378,1024,0,0,54,0,93.9,-90,0,98,4.187,4.183,0,0,0,0,4.108,65.12,272.27757531393,4.593176,6,P-GPS,
38000,2023-04-01 05:13:24,35.8244885421812,14.4415514897199,4.92126,,,272.60565931393,3.937008,0,0.88056433264,3.735564424,13,5,8.359,272.60565931393,4.92126,0.4921268,0.90699806052,0,0,-1.342164,95, 3.7, 1.8,0,0,1024,1024,1361,1024,0,0,51,0,93.9,-90,0,98,4.187,4.183,0,0,0,0,4.108,65.12,272.60565931393,4.92126,6,P-GPS,
38100,2023-04-01 05:13:24,35.8244886829801,14.4415514005747,5.249344,,,272.93374331393,4.265092,0,0.87534123536,3.793307208,13,5,8.352,272.93374331393,5.249344,0.4921268,0.90699806052,0,0,-2.013246,94.9, 3.9, 0.8,0,0,1024,1024,1332,1024,0,0,47,0,93.8,-89.9,0,98,4.154,4.159,0,0,0,0,4.097,65.3,272.93374331393,5.249344,6,P-GPS,
38200,2023-04-01 05:13:24,35.8244890568163,14.4415509782455,5.577428,,,273.26182731393,4.593176,0,0.83486551228,3.9782481588,13,5,8.352,273.26182731393,5.577428,0.4921268,0.90699806052,0,0,-2.23694,94.8, 4.8, 2.2,0,0,1024,1024,1334,1024,0,0,47,0,93.8,-90,0,98,4.154,4.159,0,0,0,0,4.097,65.3,273.26182731393,5.577428,6,P-GPS,
38300,2023-04-01 05:13:24,35.8244892059537,14.4415508968047,5.905512,,,273.58991131393,4.92126,0,0.84933401668,4.0377625964,13,5,8.352,273.58991131393,5.905512,0.4921268,0.90699806052,0,0,-2.23694,94.7, 4.7, 2.7,0,0,1024,1024,1334,1024,0,0,47,0,93.8,-90,0,98,4.154,4.159,0,0,0,0,4.097,65.3,273.58991131393,5.905512,6,P-GPS,
38400,2023-04-01 05:13:24,35.8244892841096,14.4415508551404,6.233596,,,273.91799531393,5.249344,0,0.85869097236,4.0688321512,13,5,8.352,273.91799531393,6.233596,0.4921268,0.90699806052,0,0,-2.23694,94.8, 4.6, 2.5,0,0,1024,1024,1334,1024,0,0,47,0,93.8,-90,0,98,4.154,4.159,0,0,0,0,4.097,65.3,273.91799531393,6.233596,6,P-GPS,
38500,2023-04-01 05:13:24,35.8244893145082,14.4415508424507,6.56168,,,274.24607931393,5.577428,0,0.8633694502,4.08054475,13,5,8.352,274.24607931393,6.56168,0.4921268,0.90699806052,0,0,-2.23694,94.9, 5.6, 1.9,0,0,1024,1024,1333,1024,0,0,47,0,93.9,-89.9,0,98,4.154,4.159,0,0,0,0,4.097,65.3,274.24607931393,6.56168,6,P-GPS,
38600,2023-04-01 05:13:24,35.8244892763224,14.4415506590295,6.889764,,,274.57416331393,5.905512,0,0.81443244076,4.1365486888,13,5,8.352,274.57416331393,6.889764,0.4921268,0.90699806052,0,0,-2.013246,95.1, 5.7, 0.9,0,0,1024,1024,1332,1024,0,0,47,0,93.9,-90,0,98,4.154,4.159,0,0,0,0,4.097,65.3,274.57416331393,6.889764,6,P-GPS,
38700,2023-04-01 05:13:24,35.8244893282547,14.4415506135026,7.545932,,,275.23033131393,6.233596,0,0.81841866136,4.1598098444,14,5,8.352,275.23033131393,7.545932,0.4921268,0.90699806052,0,0,-2.013246,95, 5.3, 2.8,0,0,1024,1024,1329,1024,0,0,46,0,93.9,-90,0,98,4.154,4.159,0,0,0,0,4.097,65.3,275.23033131393,7.545932,6,P-GPS,
38800,2023-04-01 05:13:25,35.8244893768853,14.441550558155,7.874016,,,275.55841531393,6.56168,0,0.82019687664,4.1839568268,14,5,8.352,275.55841531393,7.874016,0.4921268,0.90699806052,0,0,-2.23694,94.9, 4.3, 1.6,0,0,1024,1024,1321,1024,0,0,45,0,93.8,-89.9,0,98,4.154,4.159,0,0,0,0,4.097,65.3,275.55841531393,7.874016,6,P-GPS,
38900,2023-04-01 05:13:25,35.8244894086428,14.441550503768,8.2021,,,275.88649931393,6.889764,0,0.81819884508,4.2037731004,14,5,8.352,275.88649931393,8.2021,0.4921268,0.90699806052,-0.223694,0,-2.23694,95, 5.4, -0.4,0,0,1024,1024,1323,1024,0,0,45,0,93.8,-89.9,0,98,4.154,4.159,0,0,0,0,4.097,65.3,275.88649931393,8.2021,6,P-GPS,
39000,2023-04-01 05:13:25,35.8244893626584,14.4415504835013,8.858268,,,276.54266731393,7.217848,0.223694,0.80161419888,4.2215880616,14,5,8.352,276.54266731393,8.858268,0.4921268,0.90699806052,-0.223694,0,-2.23694,94.9, 5.4, -1,0,0,1024,1024,1311,1024,0,0,43,0,93.8,-89.9,0,98,4.154,4.159,0,0,0,0,4.097,65.3,276.54266731393,8.858268,6,P-GPS,
39100,2023-04-01 05:13:25,35.8244892326528,14.4415503898191,9.186352,,,276.87075131393,7.545932,0.223694,0.74776577196,4.2765421316,14,5,8.3,276.87075131393,9.186352,0.4921268,0.90699806052,-0.223694,0,-2.23694,94.8, 5.9, -0.3,0,0,1024,1024,1250,1024,0,0,34,0,93.8,-90,0,98,4.135,4.127,0,0,0,0,5.129,65.48,276.87075131393,9.186352,6,P-GPS,
39200,2023-04-01 05:13:25,35.8244890946341,14.4415504083708,9.514436,,,277.19883531393,8.2021,0.223694,0.71509516724,4.3271983012,14,5,8.3,277.19883531393,9.514436,0.4921268,0.90699806052,-0.223694,0,-2.23694,94.8, 7.3, -1.7,0,0,1024,1024,1250,1024,0,0,34,0,93.8,-90,0,98,4.135,4.127,0,0,0,0,5.129,65.48,277.19883531393,9.514436,6,P-GPS,
39300,2023-04-01 05:13:25,35.8244889265249,14.4415504558795,9.84252,,,277.52691931393,8.2021,0.3131716,0.68389437884,4.3901248124,14,5,8.3,277.52691931393,9.84252,0.4921268,0.90699806052,-0.223694,0.223694,-1.789552,94.8, 7, -3.5,0,0,1024,1024,1250,1024,0,0,34,0,93.9,-90,0,98,4.135,4.127,0,0,0,0,5.129,65.48,277.52691931393,9.84252,6,P-GPS,
39400,2023-04-01 05:13:25,35.8244887740407,14.4415505229836,10.170604,,,277.85500331393,8.530184,0.223694,0.66528217352,4.4491799324,14,5,8.3,277.85500331393,10.170604,0.4921268,0.90699806052,0,0.223694,-1.789552,94.6, 8.5, -1.9,0,0,1024,1024,1262,1024,0,0,36,0,93.8,-90,0,98,4.135,4.127,0,0,0,0,5.129,65.48,277.85500331393,10.170604,6,P-GPS,
39500,2023-04-01 05:13:25,35.8244882809165,14.4415506760286,10.170604,,,277.85500331393,8.858268,0.223694,0.62179463932,4.6347114344,14,5,8.3,277.85500331393,10.170604,0.4921268,0.90699806052,0,0.223694,-1.342164,94.7, 8.8, -0.9,0,0,1024,1024,1262,1024,0,0,36,0,93.8,-89.9,0,98,4.135,4.127,0,0,0,0,5.129,65.48,277.85500331393,10.170604,6,P-GPS,
39600,2023-04-01 05:13:25,35.8244882157677,14.441550765006,10.498688,,,278.18308731393,9.186352,0.223694,0.63943899684,4.6701773148,14,5,8.3,278.18308731393,10.498688,0.4921268,0.90699806052,0,0.223694,-1.11847,94.7, 8.5, -0.7,0,0,1024,1024,1255,1024,0,0,35,0,93.9,-90,0,98,4.135,4.127,0,0,0,0,5.129,65.48,278.18308731393,10.498688,6,P-GPS,
39700,2023-04-01 05:13:25,35.8244881969796,14.4415508411727,10.826772,,,278.51117131393,9.186352,0,0.65918309196,4.693733746,14,5,8.3,278.51117131393,10.826772,0.4921268,0.90699806052,0,0,-1.11847,94.7, 8.7, -0.3,0,0,1024,1024,1264,1024,0,0,36,0,93.8,-90,0,98,4.135,4.127,0,0,0,0,5.129,65.48,278.51117131393,10.826772,6,P-GPS,
39800,2023-04-01 05:13:26,35.8244882113892,14.4415508879851,10.826772,,,278.51117131393,9.514436,0,0.6739337486,4.7085303344,14,5,8.3,278.51117131393,10.826772,0.4921268,0.90699806052,0,0,-1.11847,94.8, 8.2, 0,0,0,1024,1024,1250,1024,0,0,34,0,93.9,-90,0,98,4.135,4.127,0,0,0,0,5.129,65.48,278.51117131393,10.826772,6,P-GPS,
39900,2023-04-01 05:13:26,35.8244882789945,14.4415509869224,11.154856,,,278.83925531393,9.514436,0,0.70895343476,4.7468177372,14,5,8.3,278.83925531393,11.154856,0.4921268,0.90699806052,0,0,-1.342164,94.6, 8.3, -0.3,0,0,1024,1024,1248,1024,0,0,34,0,93.9,-90,0,98,4.135,4.127,0,0,0,0,5.129,65.48,278.83925531393,11.154856,6,P-GPS,
40000,2023-04-01 05:13:26,35.8244883431287,14.4415509840454,11.48294,,,279.16733931393,9.84252,0,0.7153215452,4.7702101264,14,5,8.3,279.16733931393,11.48294,0.4921268,0.90699806052,0,0,-1.342164,94.7, 8.6, 0,0,0,1024,1024,1253,1024,0,0,35,0,93.8,-90,0,98,4.135,4.127,0,0,0,0,5.129,65.48,279.16733931393,11.48294,6,P-GPS,
40100,2023-04-01 05:13:26,35.8244884300571,14.4415509637991,11.811024,,,279.49542331393,10.170604,0,0.72056104668,4.802493592,14,5,8.404,279.49542331393,11.811024,0.4921268,0.90699806052,0,0,-1.342164,94.9, 8, 0,0,0,1024,1024,1253,1024,0,0,35,0,93.8,-90,0,98,4.173,4.171,0,0,0,0,4.301,65.48,279.49542331393,11.811024,6,P-GPS,
40200,2023-04-01 05:13:26,35.824488431296,14.4415509796879,11.811024,,,279.49542331393,10.170604,0,0.72510501008,4.8072180016,14,5,8.404,279.49542331393,11.811024,0.4921268,0.90699806052,0,0,-1.342164,94.7, 8.9, 1,0,0,1024,1024,1253,1024,0,0,35,0,93.9,-90,0,98,4.173,4.171,0,0,0,0,4.301,65.48,279.49542331393,11.811024,6,P-GPS,
40300,2023-04-01 05:13:26,35.8244882973275,14.4415510316132,12.139108,,,279.82350731393,10.498688,0,0.7235564536,4.8584647224,14,5,8.404,279.82350731393,12.139108,0.4921268,0.90699806052,0,0,-1.342164,94.7, 8.8, -0.5,0,0,1024,1024,1248,1024,0,0,34,0,93.9,-90,0,98,4.173,4.171,0,0,0,0,4.301,65.48,279.82350731393,12.139108,6,P-GPS,
40400,2023-04-01 05:13:26,35.824488267413,14.4415510438268,12.139108,,,279.82350731393,10.498688,0,0.72388125676,4.8699476624,14,5,8.404,279.82350731393,12.139108,0.4921268,0.90699806052,0,0,-1.342164,94.8, 8.2, -0.8,0,0,1024,1024,1259,1024,0,0,36,0,93.8,-90,0,98,4.173,4.171,0,0,0,0,4.301,65.48,279.82350731393,12.139108,6,P-GPS,
40500,2023-04-01 05:13:26,35.8244882978389,14.4415510302139,12.467192,,,280.15159131393,10.826772,0,0.72321524624,4.8817586864,14,5,8.404,280.15159131393,12.467192,0.4921268,0.90699806052,0,0,-1.342164,94.9, 7.3, -0.7,0,0,1024,1024,1255,1024,0,0,35,0,93.8,-89.9,0,98,4.173,4.171,0,0,0,0,4.301,65.48,280.15159131393,12.467192,6,P-GPS,
40600,2023-04-01 05:13:26,35.8244883498994,14.4415509788862,12.467192,,,280.15159131393,11.154856,0,0.71467521972,4.9060697108,14,5,8.404,280.15159131393,12.467192,0.4921268,0.90699806052,0,0,-1.342164,94.7, 7.4, 0.1,0,0,1024,1024,1250,1024,0,0,34,0,93.9,-89.9,0,98,4.173,4.171,0,0,0,0,4.301,65.48,280.15159131393,12.467192,6,P-GPS,
40700,2023-04-01 05:13:26,35.8244884193358,14.4415509045196,12.795276,,,280.47967531393,11.154856,0,0.70280842144,4.939632704,14,5,8.404,280.47967531393,12.795276,0.4921268,0.90699806052,0,0,-1.342164,94.5, 6.8, 1.2,0,0,1024,1024,1205,1024,0,0,27,0,93.8,-89.9,0,98,4.173,4.171,0,0,0,0,4.301,65.48,280.47967531393,12.795276,6,P-GPS,
40800,2023-04-01 05:13:26,35.8244884420266,14.4415508487832,13.12336,,,280.80775931393,11.48294,0,0.69064634756,4.9580710248,14,5,8.404,280.80775931393,13.12336,0.4921268,0.90699806052,0,0,-1.342164,94.9, 6.7, 0.7,0,0,1024,1024,1063,1024,0,0,6,0,93.9,-90,0,98,4.173,4.171,0,0,0,0,4.301,65.48,280.80775931393,13.12336,6,P-GPS,
40900,2023-04-01 05:13:27,35.8244883770484,14.4415507636889,13.12336,,,280.80775931393,11.48294,0,0.65839240952,4.9926510784,14,5,8.404,280.80775931393,13.12336,0.4921268,0.90699806052,0,0,-1.11847,94.9, 7.2, 0.2,0,0,1024,1024,1024,1024,0,0,0,0,93.9,-90,0,98,4.173,4.171,0,0,0,0,4.301,65.48,280.80775931393,13.12336,6,P-GPS,
41000,2023-04-01 05:13:27,35.8244883613514,14.4415506992862,13.12336,,,280.80775931393,11.811024,0,0.63857285508,5.0125657772,14,5,8.404,280.80775931393,13.12336,0.4921268,0.90699806052,0,0,-0.671082,94.9, 7.2, 0,0,0,1024,1024,1024,1024,0,0,0,0,93.9,-89.9,0,98,4.173,4.171,0,0,0,0,4.301,65.48,280.80775931393,13.12336,6,P-GPS,
41100,2023-04-01 05:13:27,35.8244883971503,14.4415506447968,13.12336,,,280.80775931393,11.811024,0,0.62870408836,5.033300686,14,5,8.319,280.80775931393,13.12336,0.4921268,0.90699806052,0,0,-0.447388,94.8, 7.4, -0.1,0,0,1024,1024,1024,1024,0,0,0,0,93.8,-90,0,98,4.16,4.157,0,0,0,0,4.525,65.48,280.80775931393,13.12336,6,P-GPS,
41200,2023-04-01 05:13:27,35.8244884118865,14.4415505510713,13.12336,,,280.80775931393,11.811024,0,0.60560697476,5.0615487184,14,5,8.319,280.80775931393,13.12336,0.4921268,0.90699806052,0,0,-0.223694,94.9, 7.2, -0.5,0,0,1024,1024,1024,1024,0,0,0,0,93.9,-90,0,98,4.16,4.157,0,0,0,0,4.525,65.48,280.80775931393,13.12336,6,P-GPS,
41300,2023-04-01 05:13:27,35.8244884068689,14.4415504097498,13.12336,,,280.80775931393,11.811024,0,0.56714896828,5.1033794284,14,5,8.319,280.80775931393,13.12336,0.4921268,0.90699806052,0,0,0,95, 6.3, -0.8,0,0,1024,1024,1024,1024,0,0,0,0,93.9,-90,0,98,4.16,4.157,0,0,0,0,4.525,65.48,280.80775931393,13.12336,6,P-GPS,
41400,2023-04-01 05:13:27,35.8244883977769,14.4415503157696,13.12336,,,280.80775931393,11.811024,0,0.54087600156,5.131397802,14,5,8.319,280.80775931393,13.12336,0.4921268,0.90699806052,0,0,0,94.8, 6.3, -0.4,0,0,1024,1024,1024,1024,0,0,0,0,93.8,-90,0,98,4.16,4.157,0,0,0,0,4.525,65.48,280.80775931393,13.12336,6,P-GPS,
41500,2023-04-01 05:13:27,35.8244883877933,14.4415502523649,13.12336,,,280.80775931393,11.811024,0,0.5225885994,5.1504922908,14,5,8.319,280.80775931393,13.12336,0.4921268,0.90699806052,0,0,0,94.6, 6, -0.6,0,0,1024,1024,1024,1024,0,0,0,0,93.9,-89.9,0,98,4.16,4.157,0,0,0,0,4.525,65.48,280.80775931393,13.12336,6,P-GPS,
41600,2023-04-01 05:13:27,35.8244883303231,14.4415503327461,12.795276,,,280.47967531393,11.811024,0,0.5344980486,5.1822180136,14,5,8.319,280.80775931393,13.12336,0.4921268,0.90699806052,0,0,0,94.7, 6.1, -1.4,0,0,1024,1024,1024,1024,0,0,0,0,93.9,-90,0,98,4.16,4.157,0,0,0,0,4.525,65.48,280.47967531393,12.795276,6,P-GPS,
41700,2023-04-01 05:13:27,35.8244883469291,14.4415503000655,12.795276,,,280.47967531393,11.811024,0,0.52837272032,5.1936025284,14,5,8.319,280.80775931393,13.12336,0.4921268,0.90699806052,0,0,0,94.4, 5.6, -1.1,0,0,1024,1024,1024,1024,0,0,0,0,93.8,-90,0,98,4.16,4.157,0,0,0,0,4.525,65.48,280.47967531393,12.795276,6,P-GPS,
41800,2023-04-01 05:13:28,35.8244883762248,14.4415502336078,12.795276,,,280.47967531393,11.811024,0,0.51570539708,5.2159778572,14,5,8.319,280.80775931393,13.12336,0.4921268,0.90699806052,0,0,0,94.6, 5.8, 0,0,0,1024,1024,1024,1024,0,0,0,0,93.8,-90,0,98,4.16,4.157,0,0,0,0,4.525,65.48,280.47967531393,12.795276,6,P-GPS,
41900,2023-04-01 05:13:28,35.8244884080133,14.4415501391414,12.795276,,,280.47967531393,11.811024,0,0.49702757496,5.2462600104,14,5,8.319,280.80775931393,13.12336,0.4921268,0.90699806052,0,0,0,94.9, 6.2, 1.4,0,0,1024,1024,1024,1024,0,0,0,0,93.8,-89.9,0,98,4.16,4.157,0,0,0,0,4.525,65.48,280.47967531393,12.795276,6,P-GPS,
42000,2023-04-01 05:13:28,35.8244883626538,14.4415500144653,12.467192,,,280.15159131393,11.811024,0,0.4568897784,5.2866799592,14,5,8.319,280.80775931393,13.12336,0.4921268,0.90699806052,0,0,0,94.9, 6.1, 0.6,0,0,1024,1024,1024,1024,0,0,0,0,93.9,-89.9,0,98,4.16,4.157,0,0,0,0,4.525,65.48,280.15159131393,12.467192,6,P-GPS,
42100,2023-04-01 05:13:28,35.8244883950871,14.441549962039,12.467192,,,280.15159131393,11.811024,0,0.4501476522,5.3061681488,14,5,8.355,280.80775931393,13.12336,0.4921268,0.90699806052,0,0,0,94.8, 5.6, 0.3,0,0,1024,1024,1024,1024,0,0,0,0,93.9,-90,0,98,4.174,4.17,0,0,0,0,3.824,65.66,280.15159131393,12.467192,6,P-GPS,
42200,2023-04-01 05:13:28,35.8244884216486,14.4415498968672,12.467192,,,280.15159131393,12.139108,0,0.43984909544,5.327756076,14,5,8.355,280.80775931393,13.12336,0.4921268,0.90699806052,0,0,0,94.5, 5.3, 0,0,0,1024,1024,1024,1024,0,0,0,0,93.8,-89.9,0,98,4.174,4.17,0,0,0,0,3.824,65.66,280.15159131393,12.467192,6,P-GPS,
42300,2023-04-01 05:13:28,35.8244884595661,14.4415498191876,12.467192,,,280.15159131393,12.139108,0,0.43011484316,5.3545933472,14,5,8.355,280.80775931393,13.12336,0.4921268,0.90699806052,0,0,0,94.6, 5.6, 0.4,0,0,1024,1024,1024,1024,0,0,0,0,93.9,-89.9,0,98,4.174,4.17,0,0,0,0,3.824,65.66,280.15159131393,12.467192,6,P-GPS,
42400,2023-04-01 05:13:28,35.8244885075169,14.4415497622783,12.467192,,,280.15159131393,12.139108,0,0.42886156228,5.3788715632,14,5,8.355,280.80775931393,13.12336,0.4921268,0.90699806052,0,0,0,94.6, 5.1, 0.3,0,0,1024,1024,1024,1024,0,0,0,0,93.9,-90,0,98,4.174,4.17,0,0,0,0,3.824,65.66,280.15159131393,12.467192,6,P-GPS,
42500,2023-04-01 05:13:28,35.8244885496171,14.4415497056188,12.467192,,,280.15159131393,12.139108,0,0.42750657536,5.4016077844,14,5,8.355,280.80775931393,13.12336,0.4921268,0.90699806052,0,0,0,94.5, 5, 0.8,0,0,1024,1024,1024,1024,0,0,0,0,93.8,-90,0,98,4.174,4.17,0,0,0,0,3.824,65.66,280.15159131393,12.467192,6,P-GPS,
42600,2023-04-01 05:13:28,35.8244886133287,14.4415497078115,12.467192,,,280.15159131393,12.139108,0,0.4448490956,5.4248361316,14,5,8.355,280.80775931393,13.12336,0.4921268,0.90699806052,0,0,0,94.6, 5.4, 1.9,0,0,1024,1024,1303,1024,0,0,42,0,93.9,-90,0,98,4.174,4.17,0,0,0,0,3.824,65.66,280.15159131393,12.467192,6,P-GPS,
42700,2023-04-01 05:13:28,35.8244886763756,14.441549739706,12.467192,,,280.15159131393,12.139108,0,0.46828085488,5.4497048988,14,5,8.355,280.80775931393,13.12336,0.4921268,0.90699806052,0,0,0,94.5, 4.8, 1.9,0,0,1024,1024,1387,1024,0,0,55,0,93.9,-89.9,0,98,4.174,4.17,0,0,0,0,3.824,65.66,280.15159131393,12.467192,6,P-GPS,
42800,2023-04-01 05:13:28,35.8244887549887,14.4415497571636,12.467192,,,280.15159131393,12.139108,0,0.49346130188,5.478838758,14,5,8.355,280.80775931393,13.12336,0.4921268,0.90699806052,0,0,-0.671082,94.5, 4.8, 2.3,0,0,1024,1024,1399,1024,0,0,57,0,93.9,-89.9,0,98,4.174,4.17,0,0,0,0,3.824,65.66,280.15159131393,12.467192,6,P-GPS,
42900,2023-04-01 05:13:29,35.8244888144481,14.4415498646092,12.795276,,,280.47967531393,12.467192,0,0.53054135556,5.5173230112,14,5,8.355,280.80775931393,13.12336,0.4921268,0.90699806052,0,0,-1.342164,94.8, 4.7, 1.7,0,0,1024,1024,1399,1024,0,0,57,0,93.9,-89.9,0,98,4.174,4.17,0,0,0,0,3.824,65.66,280.47967531393,12.795276,6,P-GPS,
43000,2023-04-01 05:13:29,35.8244888677816,14.4415498821424,13.12336,,,280.80775931393,12.467192,0,0.54874017504,5.5374673688,14,5,8.355,280.80775931393,13.12336,0.4921268,0.90699806052,0,0,-2.013246,94.8, 4.9, 1.3,0,0,1024,1024,1395,1024,0,0,56,0,93.9,-89.9,0,98,4.174,4.17,0,0,0,0,3.824,65.66,280.80775931393,13.12336,6,P-GPS,
43100,2023-04-01 05:13:29,35.8244889161069,14.4415499281737,13.451444,,,281.13584331393,12.795276,0,0.57100395528,5.5597442724,14,5,8.355,281.13584331393,13.451444,0.4921268,0.90699806052,0,0,-2.460634,94.7, 5.5, 1.4,0,0,1024,1024,1393,1024,0,0,56,0,93.9,-89.9,0,98,4.174,4.17,0,0,0,0,3.824,65.66,281.13584331393,13.451444,6,P-GPS,
43200,2023-04-01 05:13:29,35.8244889502249,14.4415500491948,13.779528,,,281.46392731393,13.451444,0,0.60377626604,5.5976707828,14,5,8.351,281.46392731393,13.779528,0.4921268,0.90699806052,0,0,-2.684328,94.6, 6, 2.1,0,0,1024,1024,1393,1024,0,0,56,0,93.9,-90,0,98,4.176,4.133,0,0,0,0,3.812,65.66,281.46392731393,13.779528,6,P-GPS,
43300,2023-04-01 05:13:29,35.8244889012645,14.4415504360572,14.435696,,,282.12009531393,13.779528,0,0.67346458848,5.7134844348,13,5,8.351,282.12009531393,14.435696,0.4921268,0.90699806052,0,0,-2.684328,94.9, 6.5, 2.1,0,0,1024,1024,1381,1024,0,0,54,0,93.9,-89.9,0,98,4.176,4.133,0,0,0,0,3.812,65.66,282.12009531393,14.435696,6,P-GPS,
43400,2023-04-01 05:13:29,35.8244889025396,14.4415506625016,14.76378,,,282.44817931393,14.107612,0,0.72626970828,5.7804791876,13,5,8.351,282.44817931393,14.76378,0.4921268,0.90699806052,0,0,-2.684328,94.7, 6.4, 2.1,0,0,1024,1024,1367,1024,0,0,52,0,93.9,-90,0,98,4.176,4.133,0,0,0,0,3.812,65.66,282.44817931393,14.76378,6,P-GPS,
43500,2023-04-01 05:13:29,35.8244888863943,14.4415509336461,15.419948,,,283.10434731393,14.435696,0,0.78880908036,5.860892576,13,5,8.351,283.10434731393,15.419948,0.4921268,0.90699806052,0,0,-2.684328,94.8, 6.7, 2.1,0,0,1024,1024,1247,1024,0,0,34,0,93.9,-90,0,98,4.176,4.133,0,0,0,0,3.812,65.66,283.10434731393,15.419948,6,P-GPS,
43600,2023-04-01 05:13:29,35.8244889038045,14.4415510204525,15.748032,,,283.43243131393,15.091864,0,0.81386485544,5.8873689548,13,5,8.351,283.43243131393,15.748032,0.4921268,0.90699806052,0,0,-2.684328,95, 6.8, 2.8,0,0,1024,1024,1024,1024,0,0,0,0,93.9,-90,0,98,4.176,4.133,0,0,0,0,3.812,65.66,283.43243131393,15.748032,6,P-GPS,
43700,2023-04-01 05:13:29,35.8244888704743,14.441550894102,16.076116,,,283.76051531393,15.091864,0,0.77583007732,5.926673418,13,5,8.351,283.76051531393,16.076116,0.4921268,0.90699806052,0,0,-2.013246,95.1, 7.7, 2.1,0,0,1024,1024,1024,1024,0,0,0,0,93.9,-90,0,98,4.176,4.133,0,0,0,0,3.812,65.66,283.76051531393,16.076116,6,P-GPS,
43800,2023-04-01 05:13:29,35.8244889614155,14.4415509412286,16.076116,,,283.76051531393,15.419948,0,0.80584648248,5.9626642328,13,5,8.351,283.76051531393,16.076116,0.4921268,0.90699806052,0,0,-1.342164,95, 7.8, 1.5,0,0,1024,1024,1024,1024,0,0,0,0,93.9,-90,0,98,4.176,4.133,0,0,0,0,3.812,65.66,283.76051531393,16.076116,6,P-GPS,
43900,2023-04-01 05:13:30,35.8244891078114,14.441551038412,16.4042,,,284.08859931393,15.419948,0,0.86021328212,6.023294156,13,5,8.351,284.08859931393,16.4042,0.4921268,0.90699806052,0,0,-0.671082,94.7, 6.8, 2,0,0,1024,1024,1024,1024,0,0,0,0,93.9,-90,0,98,4.176,4.133,0,0,0,0,3.812,65.66,284.08859931393,16.4042,6,P-GPS,
44000,2023-04-01 05:13:30,35.8244892470902,14.441551053576,16.4042,,,284.08859931393,15.748032,0,0.89472115724,6.074311218,13,5,8.351,284.08859931393,16.4042,0.4921268,0.90699806052,0,0,-0.447388,94.7, 5.7, 1.5,0,0,1024,1024,1024,1024,0,0,0,0,93.9,-89.9,0,98,4.176,4.133,0,0,0,0,3.812,65.66,284.08859931393,16.4042,6,P-GPS,
44100,2023-04-01 05:13:30,35.8244893949,14.441551021387,16.4042,,,284.08859931393,15.748032,0,0.9222933366,6.1290684376,13,5,8.351,284.08859931393,16.4042,0.4921268,0.9222933366,0,0,-0.223694,94.7, 5.6, 1.9,0,0,1024,1024,1024,1024,0,0,0,0,93.9,-90,0,98,4.176,4.133,0,0,0,0,3.812,65.66,284.08859931393,16.4042,6,P-GPS,
44200,2023-04-01 05:13:30,35.8244898337103,14.4415509801156,16.4042,,,284.08859931393,15.748032,0,1.02769360244,6.2896327472,13,5,8.32,284.08859931393,16.4042,0.4921268,1.02769360244,0,0,0,94.8, 5.7, 1.9,0,0,1024,1024,1024,1024,0,0,0,0,93.8,-89.9,0,98,4.206,4.207,0,0,0,0,4.768,65.66,284.08859931393,16.4042,6,P-GPS,
44300,2023-04-01 05:13:30,35.8244900116606,14.4415511812208,16.4042,,,284.08859931393,15.748032,0,1.115731663,6.3777233012,13,5,8.32,284.08859931393,16.4042,0.4921268,1.115731663,0,0,0,94.9, 5.7, 2.7,0,0,1024,1024,1024,1024,0,0,0,0,93.8,-89.9,0,98,4.206,4.207,0,0,0,0,4.768,65.66,284.08859931393,16.4042,6,P-GPS,
44400,2023-04-01 05:13:30,35.8244901759306,14.4415512962189,16.4042,,,284.08859931393,15.748032,0.223694,1.18330384364,6.4466209412,13,5,8.32,284.08859931393,16.4042,0.4921268,1.18330384364,0.223694,0,0,94.9, 5.1, 3.5,0,0,1024,1024,1024,1024,0,0,0,0,93.9,-90,0,98,4.206,4.207,0,0,0,0,4.768,65.66,284.08859931393,16.4042,6,P-GPS,
44500,2023-04-01 05:13:30,35.8244903401531,14.441551353986,16.732284,,,284.41668331393,15.748032,0.223694,1.24020345176,6.5089240928,14,5,8.32,284.41668331393,16.732284,0.4921268,1.24020345176,0.223694,0,0,94.8, 5.2, 4.2,0,0,1024,1024,1024,1024,0,0,0,0,93.9,-90,0,98,4.206,4.207,0,0,0,0,4.768,65.66,284.41668331393,16.732284,6,P-GPS,
44600,2023-04-01 05:13:30,35.8244904898401,14.4415517494881,16.732284,,,284.41668331393,15.748032,0.223694,1.35778875736,6.6380579552,14,5,8.32,284.41668331393,16.732284,0.4921268,1.35778875736,0.223694,0,0,94.9, 4.7, 4.7,0,0,1024,1024,1024,1024,0,0,0,0,93.9,-89.9,0,98,4.206,4.207,0,0,0,0,4.768,65.66,284.41668331393,16.732284,6,P-GPS,
44700,2023-04-01 05:13:30,35.8244906483677,14.4415518690142,16.732284,,,284.41668331393,15.748032,0.223694,1.42453744716,6.7058401096,14,5,8.32,284.41668331393,16.732284,0.4921268,1.42453744716,0.223694,0,0,94.8, 3.5, 4.5,0,0,1037,1024,1024,1024,2,0,0,0,93.8,-89.9,0,98,4.206,4.207,0,0,0,0,4.768,65.66,284.41668331393,16.732284,6,P-GPS,
44800,2023-04-01 05:13:31,35.8244907909815,14.4415518904611,16.732284,,,284.41668331393,15.748032,0,1.4681430916,6.7582679328,14,5,8.32,284.41668331393,16.732284,0.4921268,1.4681430916,0,0,0,94.5, 3.6, 3.9,0,0,1361,1024,1024,1024,51,0,0,0,93.8,-89.9,0,98,4.206,4.207,0,0,0,0,4.768,65.66,284.41668331393,16.732284,6,P-GPS,
44900,2023-04-01 05:13:31,35.824490936366,14.4415518591175,16.732284,,,284.41668331393,15.748032,0,1.50332025808,6.8121065172,14,5,8.32,284.41668331393,16.732284,0.4921268,1.50332025808,0,0,0,94.6, 3.9, 4.3,0,0,1500,1024,1024,1024,72,0,0,0,93.9,-89.9,0,98,4.206,4.207,0,0,0,0,4.768,65.66,284.41668331393,16.732284,6,P-GPS,
45000,2023-04-01 05:13:31,35.82449091349,14.4415515248496,16.4042,,,284.08859931393,15.748032,0,1.4370243242,6.9113519272,14,5,8.32,284.41668331393,16.732284,0.4921268,1.50332025808,0,0,0,94.5, 2.2, 3.8,0,0,1492,1024,1024,1024,71,0,0,0,93.8,-89.9,0,98,4.206,4.207,0,0,0,0,4.768,65.66,284.08859931393,16.4042,6,P-GPS,
45100,2023-04-01 05:13:31,35.8244909529399,14.4415514955296,16.4042,,,284.08859931393,15.748032,0,1.4437500462,6.928149828,14,5,8.32,284.41668331393,16.732284,0.4921268,1.50332025808,0,0,0,94.6, 0.6, 4.2,0,0,1479,1024,1024,1024,69,0,0,0,93.9,-89.9,0,98,4.206,4.207,0,0,0,0,4.768,65.66,284.08859931393,16.4042,6,P-GPS,
45200,2023-04-01 05:13:31,35.8244909620347,14.4415514838813,16.4042,,,284.08859931393,15.748032,0,1.44449807772,6.9329398544,14,5,8.349,284.41668331393,16.732284,0.4921268,1.50332025808,0,0,0,94.6, -1.4, 2.9,0,0,1479,1024,1024,1024,69,0,0,0,93.9,-89.9,0,98,4.176,4.176,0,0,0,0,3.437,65.84,284.08859931393,16.4042,6,P-GPS,
45300,2023-04-01 05:13:31,35.824490954415,14.4415515248917,16.4042,,,284.08859931393,15.419948,0,1.44919295976,6.945374238,14,5,8.349,284.41668331393,16.732284,0.4921268,1.50332025808,0,0.223694,0,94.4, -0.7, 3.3,0,0,1444,1024,1024,1024,64,0,0,0,93.8,-89.9,0,98,4.176,4.176,0,0,0,0,3.437,65.84,284.08859931393,16.4042,6,P-GPS,
45400,2023-04-01 05:13:31,35.8244908624315,14.4415511807281,16.076116,,,283.76051531393,15.419948,0.447388,1.36446526676,7.0525920892,14,5,8.349,284.41668331393,16.732284,0.4921268,1.50332025808,0,0.447388,0,94.4, -0.2, 3.3,0,0,1384,1024,1024,1024,55,0,0,0,93.9,-89.9,0,98,4.176,4.176,0,0,0,0,3.437,65.84,283.76051531393,16.076116,6,P-GPS,
45500,2023-04-01 05:13:31,35.8244909008923,14.4415513435256,16.076116,,,283.76051531393,15.419948,0.671082,1.40263127848,7.1027233244,14,5,8.349,284.41668331393,16.732284,0.671082,1.50332025808,0,0.671082,0,94.5, 0.8, 3.5,0,0,1321,1024,1024,1024,45,0,0,0,93.9,-89.9,0,98,4.176,4.176,0,0,0,0,3.437,65.84,283.76051531393,16.076116,6,P-GPS,
45600,2023-04-01 05:13:31,35.8244909339072,14.4415516381914,16.076116,,,283.76051531393,15.419948,0.671082,1.4627953224,7.1907482616,14,5,8.349,284.41668331393,16.732284,0.671082,1.50332025808,0,0.671082,0,94.6, 1.8, 3.8,0,0,1304,1024,1024,1024,42,0,0,0,93.9,-90,0,98,4.176,4.176,0,0,0,0,3.437,65.84,283.76051531393,16.076116,6,P-GPS,
45700,2023-04-01 05:13:31,35.8244909601938,14.4415520766843,16.076116,,,283.76051531393,15.419948,0.894776,1.550853068,7.3208007592,14,5,8.349,284.41668331393,16.732284,0.894776,1.550853068,0,0.894776,0,94.8, 2.8, 3.6,0,0,1350,1024,1024,1024,49,0,0,0,93.9,-89.9,0,98,4.176,4.176,0,0,0,0,3.437,65.84,283.76051531393,16.076116,6,P-GPS,
45800,2023-04-01 05:13:31,35.8244909880432,14.4415525649056,16.076116,,,283.76051531393,15.748032,0.894776,1.6550525464,7.4655842284,14,5,8.349,284.41668331393,16.732284,0.894776,1.6550525464,0,0.894776,0,95, 3.7, 3.9,0,0,1333,1024,1024,1024,47,0,0,0,93.9,-89.9,0,98,4.176,4.176,0,0,0,0,3.437,65.84,283.76051531393,16.076116,6,P-GPS,
45900,2023-04-01 05:13:32,35.8244910101683,14.4415532117967,16.076116,,,283.76051531393,15.748032,1.11847,1.7981627872,7.6571196676,14,5,8.349,284.41668331393,16.732284,1.11847,1.7981627872,0,1.11847,0,94.9, 2.8, 2.9,0,0,1332,1024,1024,1024,47,0,0,0,93.9,-89.9,0,98,4.176,4.176,0,0,0,0,3.437,65.84,283.76051531393,16.076116,6,P-GPS,
46000,2023-04-01 05:13:32,35.8244910063691,14.4415537530983,16.076116,,,283.76051531393,15.748032,1.11847,1.9192914,7.817257468,14,5,8.349,284.41668331393,16.732284,1.11847,1.9192914,0,1.11847,0,94.9, 3.2, 3.4,0,0,1328,1024,1024,1024,46,0,0,0,93.9,-89.9,0,98,4.176,4.176,0,0,0,0,3.437,65.84,283.76051531393,16.076116,6,P-GPS,
46100,2023-04-01 05:13:32,35.8244909736187,14.4415543412994,16.076116,,,283.76051531393,15.748032,1.11847,2.05089245408,7.9916669224,14,5,8.349,284.41668331393,16.732284,1.11847,2.05089245408,0,1.11847,0,94.7, 3.6, 3.1,0,0,1328,1024,1024,1024,46,0,0,0,93.9,-89.9,0,98,4.176,4.176,0,0,0,0,3.437,65.84,283.76051531393,16.076116,6,P-GPS,
46200,2023-04-01 05:13:32,35.8244909322338,14.4415549243098,16.076116,,,283.76051531393,15.748032,1.11847,2.1854987576,8.1647968492,14,5,8.365,284.41668331393,16.732284,1.11847,2.1854987576,0,1.11847,0,94.8, 3.6, 2.8,0,0,1329,1024,1024,1024,46,0,0,0,93.8,-89.9,0,98,4.188,4.186,0,0,0,0,3.529,65.84,283.76051531393,16.076116,6,P-GPS,
46300,2023-04-01 05:13:32,35.8244907677731,14.4415555976371,16.076116,,,283.76051531393,15.748032,1.342164,2.3265584734,8.3728349136,14,5,8.365,284.41668331393,16.732284,1.342164,2.3265584734,0,1.342164,0,94.7, 3.1, 2.5,0,0,1327,1024,1024,1024,46,0,0,0,93.9,-89.9,0,98,4.188,4.186,0,0,0,0,3.529,65.84,283.76051531393,16.076116,6,P-GPS,
46400,2023-04-01 05:13:32,35.8244907640418,14.4415562318938,16.076116,,,283.76051531393,15.748032,1.342164,2.49226057844,8.5604661532,14,5,8.365,284.41668331393,16.732284,1.342164,2.49226057844,0,1.342164,0,94.9, 4.3, 3.4,0,0,1329,1024,1024,1024,46,0,0,0,93.9,-89.9,0,98,4.188,4.186,0,0,0,0,3.529,65.84,283.76051531393,16.076116,6,P-GPS,
46500,2023-04-01 05:13:32,35.8244907905038,14.4415569204752,16.076116,,,283.76051531393,15.748032,1.342164,2.68008210676,8.7644031676,14,5,8.365,284.41668331393,16.732284,1.342164,2.68008210676,0,1.342164,0,94.8, 2.8, 2.7,0,0,1329,1024,1024,1024,46,0,0,0,93.8,-89.9,0,98,4.188,4.186,0,0,0,0,3.529,65.84,283.76051531393,16.076116,6,P-GPS,
46600,2023-04-01 05:13:32,35.8244907841616,14.4415575640569,15.748032,,,283.43243131393,15.748032,1.342164,2.85315625928,8.9547903128,14,5,8.365,284.41668331393,16.732284,1.342164,2.85315625928,0,1.342164,0,94.5, 2.7, 3.3,0,0,1326,1024,1024,1024,46,0,0,0,93.8,-90,0,98,4.188,4.186,0,0,0,0,3.529,65.84,283.43243131393,15.748032,6,P-GPS,
46700,2023-04-01 05:13:32,35.8244907541353,14.4415580925376,15.748032,,,283.43243131393,15.748032,1.342164,2.99347778608,9.1115160396,14,5,8.365,284.41668331393,16.732284,1.342164,2.99347778608,0,1.342164,0,94.9, 3.4, 3.1,0,0,1325,1024,1024,1024,46,0,0,0,93.9,-90,0,98,4.188,4.186,0,0,0,0,3.529,65.84,283.43243131393,15.748032,6,P-GPS,
46800,2023-04-01 05:13:33,35.8244906887307,14.4415587949878,15.748032,,,283.43243131393,15.748032,1.342164,3.17917333008,9.320702398,14,5,8.365,284.41668331393,16.732284,1.342164,3.17917333008,0,1.342164,0,94.6, 2.9, 2.5,0,0,1319,1024,1024,1024,45,0,0,0,93.9,-89.9,0,98,4.188,4.186,0,0,0,0,3.529,65.84,283.43243131393,15.748032,6,P-GPS,
46900,2023-04-01 05:13:33,35.8244906145032,14.4415596001481,15.748032,,,283.43243131393,15.748032,1.565858,3.3954725496,9.5604005684,14,5,8.365,284.41668331393,16.732284,1.565858,3.3954725496,0,1.565858,0,94.6, 4, 2.8,0,0,1319,1024,1024,1024,45,0,0,0,93.8,-90,0,98,4.188,4.186,0,0,0,0,3.529,65.84,283.43243131393,15.748032,6,P-GPS,
47000,2023-04-01 05:13:33,35.824490572965,14.4415603917861,15.748032,,,283.43243131393,15.748032,1.565858,3.6143045776,9.7950790536,14,5,8.365,284.41668331393,16.732284,1.565858,3.6143045776,0,1.565858,0,94.7, 3.8, 3,0,0,1305,1024,1024,1024,43,0,0,0,93.9,-90,0,98,4.188,4.186,0,0,0,0,3.529,65.84,283.43243131393,15.748032,6,P-GPS,
47100,2023-04-01 05:13:33,35.8244905136929,14.4415613970121,15.748032,,,283.43243131393,15.748032,1.565858,3.8942258464,10.0932417928,14,5,8.365,284.41668331393,16.732284,1.565858,3.8942258464,0,1.565858,0,95, 4.3, 3.4,0,0,1232,1024,1024,1024,32,0,0,0,93.8,-89.9,0,98,4.188,4.186,0,0,0,0,3.529,65.84,283.43243131393,15.748032,6,P-GPS,
47200,2023-04-01 05:13:33,35.8244904595804,14.4415622245705,16.076116,,,283.76051531393,15.748032,1.565858,4.1261156176,10.3388454752,14,5,8.365,284.41668331393,16.732284,1.565858,4.1261156176,0,1.565858,0,94.9, 4.5, 3.2,0,0,1086,1024,1024,1024,9,0,0,0,93.9,-90,0,98,4.188,4.186,0,0,0,0,3.529,65.84,283.76051531393,16.076116,6,P-GPS,
47300,2023-04-01 05:13:33,35.8244903615572,14.4415631079652,16.076116,,,283.76051531393,15.748032,1.565858,4.372047384,10.6026250112,14,5,8.359,284.41668331393,16.732284,1.565858,4.372047384,0,1.565858,0,95, 5.2, 3.3,0,0,1024,1024,1024,1024,0,0,0,0,93.9,-89.9,0,98,4.189,4.18,0,0,0,0,3.499,66.02,283.76051531393,16.076116,6,P-GPS,
47400,2023-04-01 05:13:33,35.8244902751385,14.4415638993793,16.076116,,,283.76051531393,15.748032,1.565858,4.5941274436,10.8388454912,14,5,8.359,284.41668331393,16.732284,1.565858,4.5941274436,0,1.565858,0,95, 8.3, 2.4,0,0,1024,1024,1024,1024,0,0,0,0,93.9,-89.9,0,98,4.189,4.18,0,0,0,0,3.499,66.02,283.76051531393,16.076116,6,P-GPS,
47500,2023-04-01 05:13:33,35.8244901962675,14.4415646436001,16.4042,,,284.08859931393,15.748032,1.342164,4.8043636708,11.0608927424,14,5,8.359,284.41668331393,16.732284,1.565858,4.8043636708,0,1.342164,0,95.1, 9.5, 1.7,0,0,1024,1024,1024,1024,0,0,0,0,93.9,-90,0,98,4.189,4.18,0,0,0,0,3.499,66.02,284.08859931393,16.4042,6,P-GPS,
47600,2023-04-01 05:13:33,35.8244900181705,14.4415652171874,16.4042,,,284.08859931393,15.748032,1.11847,4.9596786364,11.2425856616,14,5,8.359,284.41668331393,16.732284,1.565858,4.9596786364,0,1.11847,0,95, 9.6, 1.4,0,0,1024,1024,1024,1024,0,0,0,0,93.8,-90,0,98,4.189,4.18,0,0,0,0,3.499,66.02,284.08859931393,16.4042,6,P-GPS,
