time(millisecond),datetime(utc),latitude,longitude,height_above_takeoff(feet),height_above_ground_at_drone_location(feet),ground_elevation_at_drone_location(feet),altitude_above_seaLevel(feet),height_sonar(feet),speed(mph),distance(feet),mileage(feet),satellites,gpslevel,voltage(v),max_altitude(feet),max_ascent(feet),max_speed(mph),max_distance(feet), xSpeed(mph), ySpeed(mph), zSpeed(mph), compass_heading(degrees), pitch(degrees), roll(degrees),isPhoto,isVideo,rc_elevator,rc_aileron,rc_throttle,rc_rudder,rc_elevator(percent),rc_aileron(percent),rc_throttle(percent),rc_rudder(percent),gimbal_heading(degrees),gimbal_pitch(degrees),gimbal_roll(degrees),battery_percent,voltageCell1,voltageCell2,voltageCell3,voltageCell4,voltageCell5,voltageCell6,current(A),battery_temperature(f),altitude(feet),ascent(feet),flycStateRaw,flycState,message
505100,2023-04-01 05:40:13,35.8244842401835,14.4415469598873,0,Available with any HD 360 subscription,Available with any HD 360 subscription,267.68439931393,0.656168,0,0,0,22,5,0,267.68439931393,0,0,0,0,0,0,34.8, 6.8, 1.5,0,0,1024,1024,1024,1024,0,0,0,0,30,0,0,63,3.995,3.99,0,0,0,0,0,97.52,267.68439931393,0,41,Motors_Started,
505200,2023-04-01 05:40:13,35.8244842399645,14.4415469602459,0,,,267.68439931393,0.656168,0,0.000132807747032,0.000132807747032,22,5,0,267.68439931393,0,0,0.000132807747032,0,0,0,34.8, 6.8, 1.5,0,0,1024,1024,1024,1024,0,0,0,0,30,0,0,63,3.995,3.99,0,0,0,0,0,97.52,267.68439931393,0,41,Motors_Started,
505300,2023-04-01 05:40:13,35.8244842410482,14.4415469613637,0,,,267.68439931393,0.328084,0,0.00053878282564,0.00064825789476,22,5,0,267.68439931393,0,0,0.00053878282564,0,0,0,34.8, 6.8, 1.5,0,0,1024,1024,1024,1024,0,0,0,0,30,0,0,63,3.995,3.99,0,0,0,0,0,97.52,267.68439931393,0,41,Motors_Started,"Setting new Return-To-Home altitude to 15m (49 ft). Data Recorder File Index is 48. Setting new Maximum Flight Altitude to 35m (115 ft) Aircraft in Warning Zone (Class D Airspace). Fly with caution"
505400,2023-04-01 05:40:13,35.8244842421278,14.441546962376,0,,,267.68439931393,0.328084,0,1.65375005292,0.00114308402608,22,5,7.987,267.68439931393,0,0,1.65375005292,0,0,0,34.8, 6.9, 1.5,0,0,1024,1024,1024,1024,0,0,0,0,30,0,0,63,3.995,3.99,0,0,0,0,0.613,97.52,267.68439931393,0,41,Motors_Started,
505500,2023-04-01 05:40:13,35.8244842419096,14.441546956542,0,,,267.68439931393,0.328084,0,1.6546588456,0.0028707514042,22,5,7.987,267.68439931393,0,0,1.6546588456,0,0,0,34.8, 6.8, 1.5,0,0,1024,1024,1024,1024,0,0,0,0,30,0,0,63,3.995,3.99,0,0,0,0,0.613,97.52,267.68439931393,0,41,Motors_Started,
505600,2023-04-01 05:40:13,35.8244842429128,14.4415469561978,0,,,267.68439931393,0.328084,0,1.65438981672,0.00325064314864,22,5,7.987,267.68439931393,0,0,1.6546588456,0,0,0,34.8, 6.8, 1.5,0,0,1024,1024,1024,1024,0,0,0,0,30,0,0,63,3.995,3.99,0,0,0,0,0.613,97.52,267.68439931393,0,41,Motors_Started,
505700,2023-04-01 05:40:13,35.8244842442603,14.4415469559563,0,,,267.68439931393,0.328084,0,1.65399611592,0.0037474410648,22,5,7.987,267.68439931393,0,0,1.6546588456,0,0,0,34.8, 6.8, 1.5,0,0,1024,1024,1024,1024,0,0,0,0,30,0,0,63,3.995,3.99,0,0,0,0,0.613,97.52,267.68439931393,0,41,Motors_Started,
505800,2023-04-01 05:40:13,35.8244842456274,14.441546955014,0,,,267.68439931393,0.328084,0,1.65369427864,0.0043188321592,22,5,7.987,267.68439931393,0,0,1.6546588456,0,0,0,34.8, 6.8, 1.5,0,0,1024,1024,1024,1024,0,0,0,0,30,0,0,63,3.995,3.99,0,0,0,0,0.613,97.52,267.68439931393,0,41,Motors_Started,
505900,2023-04-01 05:40:13,35.8244842465515,14.4415469535599,0,,,267.68439931393,0.328084,0,1.65361225764,0.0048654201032,22,5,7.987,267.68439931393,0,0,1.6546588456,0,0,0,34.8, 6.9, 1.5,0,0,1024,1024,1024,1024,0,0,0,0,30,0,0,63,3.995,3.99,0,0,0,0,0.613,97.52,267.68439931393,0,41,Motors_Started,
506000,2023-04-01 05:40:13,35.8244842337959,14.4415469390715,0,,,267.68439931393,0.328084,0,1.65976711348,0.0111921919592,22,5,7.987,267.68439931393,0,0,1.65976711348,0,0,0,34.8, 6.9, 1.5,0,0,1024,1024,1024,1024,0,0,0,0,30,0,0,63,3.995,3.99,0,0,0,0,0.613,97.52,267.68439931393,0,41,Motors_Started,
506100,2023-04-01 05:40:14,35.8244842316016,14.4415468837747,0,,,267.68439931393,0.328084,0,1.6685203946,0.0275699811972,22,5,7.987,267.68439931393,0,0,1.6685203946,0,0,0,34.6, 6.7, 1.4,0,0,1024,1024,1024,1024,0,0,0,0,30,0,0,63,3.995,3.99,0,0,0,0,0.613,97.52,267.68439931393,0,41,Motors_Started,
506200,2023-04-01 05:40:14,35.824484224951,14.4415468480648,0,,,267.68439931393,0.328084,0,1.67588916124,0.03840879388,23,5,7.987,267.68439931393,0,0,1.67588916124,0,0,0,35, 6.8, 1.6,0,0,1024,1024,1024,1024,0,0,0,0,30,0,0,63,3.995,3.99,0,0,0,0,0.613,97.52,267.68439931393,0,11,AutoTakeoff,
506300,2023-04-01 05:40:14,35.824484220792,14.4415468796086,0,,,267.68439931393,0.328084,0,1.6725558278,0.047862862424,23,5,7.987,267.68439931393,0,0,1.67588916124,0,0,0,35.1, 6.8, 1.5,0,0,1024,1024,1024,1024,0,0,0,0,30,0,0,63,3.995,3.99,0,0,0,0,0.613,97.52,267.68439931393,0,11,AutoTakeoff,
506400,2023-04-01 05:40:14,35.8244842362027,14.4415469194355,0,,,267.68439931393,0.328084,0,1.66185044688,0.060917652868,23,5,7.987,267.68439931393,0,0,1.67588916124,0,0,0,35.1, 6.7, 1.5,0,0,1024,1024,1024,1024,0,0,0,0,30,0,0,63,3.995,3.99,0,0,0,0,0.613,97.52,267.68439931393,0,11,AutoTakeoff,
506500,2023-04-01 05:40:14,35.8244842325558,14.4415469302385,0,,,267.68439931393,0.328084,0,1.66144034188,0.064379267152,23,5,7.972,267.68439931393,0,0,1.67588916124,0,0,0,35.2, 6.8, 1.5,0,0,1024,1024,1024,1024,0,0,0,0,30,0,0,63,3.986,3.981,0,0,0,0,1.031,97.52,267.68439931393,0,11,AutoTakeoff,
506600,2023-04-01 05:40:14,35.8244842171565,14.4415469331742,0,,,267.68439931393,0.328084,0,1.66591540764,0.070064634788,23,5,7.972,267.68439931393,0,0,1.67588916124,0,0,0,35.3, 5.5, 1.5,0,0,1024,1024,1024,1024,0,0,0,0,30,0,0,63,3.986,3.981,0,0,0,0,1.031,97.52,267.68439931393,0,11,AutoTakeoff,
506700,2023-04-01 05:40:14,35.8244842006221,14.441546922721,0,,,267.68439931393,0.328084,0,1.67269034224,0.076843506396,23,5,7.972,267.68439931393,0,0,1.67588916124,0,0,0,35.6, 0.7, 1,0,0,1024,1024,1024,1024,0,0,0,0,30,0,0,63,3.986,3.981,0,0,0,0,1.031,97.52,267.68439931393,0,11,AutoTakeoff,
506800,2023-04-01 05:40:14,35.8244842131993,14.4415469391189,0,,,267.68439931393,0.328084,0.223694,1.66631895096,0.083521000048,23,5,7.972,267.68439931393,0,0.223694,1.67588916124,-0.223694,0,-0.223694,35.6, -1.6, -0.8,0,0,1024,1024,1024,1024,0,0,0,0,30,0,0,63,3.986,3.981,0,0,0,0,1.031,97.52,267.68439931393,0,11,AutoTakeoff,
506900,2023-04-01 05:40:14,35.824484094879,14.4415469406141,0,,,267.68439931393,0.328084,0,1.70394034324,0.126692261272,23,5,7.972,267.68439931393,0,0.223694,1.70394034324,0,0,-0.447388,35.4, -1.6, -0.4,0,0,1024,1024,1024,1024,0,0,0,0,30,0,0,63,3.986,3.981,0,0,0,0,1.031,97.52,267.68439931393,0,11,AutoTakeoff,
507000,2023-04-01 05:40:14,35.8244840065465,14.4415469454429,0,,,267.68439931393,0.656168,0,1.73167984544,0.158952104824,23,5,7.972,267.68439931393,0,0.223694,1.73167984544,0,0,-0.894776,35.3, -1, -0.1,0,0,1024,1024,1024,1024,0,0,0,0,30.1,0,0,63,3.986,3.981,0,0,0,0,1.031,97.52,267.68439931393,0,11,AutoTakeoff,
507100,2023-04-01 05:40:15,35.8244839511534,14.4415469611922,0.328084,,,268.01248331393,0.656168,0,1.74741803492,0.179692262968,23,5,7.972,268.01248331393,0.328084,0.223694,1.74741803492,0,0,-1.11847,35.4, -0.8, 0,0,0,1024,1024,1024,1024,0,0,0,0,30.1,0,0,63,3.986,3.981,0,0,0,0,1.031,97.52,268.01248331393,0.328084,11,AutoTakeoff,
507200,2023-04-01 05:40:15,35.8244837606564,14.4415468401553,0.328084,,,268.01248331393,0.656168,0,1.82560045212,0.257875992504,23,5,7.972,268.01248331393,0.328084,0.223694,1.82560045212,0,0,-1.565858,35.3, -0.2, 0,0,0,1024,1024,1024,1024,0,0,0,0,30.1,0,0,63,3.986,3.981,0,0,0,0,1.031,97.52,268.01248331393,0.328084,11,AutoTakeoff,
507300,2023-04-01 05:40:15,35.8244837012092,14.4415468063778,0.656168,,,268.34056731393,0.984252,0,1.84945543976,0.281756242612,23,5,7.972,268.34056731393,0.656168,0.223694,1.84945543976,0,0,-1.789552,35.2, -0.1, -0.5,0,0,1024,1024,1040,1024,0,0,2,0,30.1,0,0,63,3.986,3.981,0,0,0,0,1.031,97.52,268.34056731393,0.656168,11,AutoTakeoff,
507400,2023-04-01 05:40:15,35.8244836577917,14.4415468100991,0.984252,,,268.66865131393,1.312336,0,1.86303155568,0.297635180128,23,5,7.972,268.66865131393,0.984252,0.223694,1.86303155568,0,0,-1.789552,35.3, 0, -1,0,0,1024,1024,1174,1024,0,0,23,0,30.1,0,0,63,3.986,3.981,0,0,0,0,1.031,97.52,268.66865131393,0.984252,11,AutoTakeoff,
507500,2023-04-01 05:40:15,35.82448363752,14.4415469104346,1.312336,,,268.99673531393,1.64042,0,1.8563156762,0.32822507612,23,5,7.926,268.99673531393,1.312336,0.223694,1.86303155568,0,0,-2.013246,35.3, 0.5, -1.2,0,0,1024,1024,1266,1024,0,0,37,0,30.1,0,0,63,3.946,3.93,0,0,0,0,2.568,97.52,268.99673531393,1.312336,11,AutoTakeoff,
507600,2023-04-01 05:40:15,35.8244836358345,14.4415470204338,1.64042,,,269.32481931393,1.968504,0,1.84272643692,0.36077100892,23,5,7.926,269.32481931393,1.64042,0.223694,1.86303155568,0,0,-2.460634,35.5, 0.6, -0.6,0,0,1024,1024,1302,1024,0,0,42,0,30.1,0,0,63,3.946,3.93,0,0,0,0,2.568,97.52,269.32481931393,1.64042,11,AutoTakeoff,
507700,2023-04-01 05:40:15,35.8244836492065,14.4415474439646,1.968504,,,269.65290331393,2.296588,0,1.78822840368,0.48615815204,23,5,7.926,269.65290331393,1.968504,0.223694,1.86303155568,0,0,-2.684328,35.5, 0.4, -0.6,0,0,1024,1024,1198,1024,0,0,26,0,30.1,0,0,63,3.946,3.93,0,0,0,0,2.568,97.52,269.65290331393,1.968504,11,AutoTakeoff,
507800,2023-04-01 05:40:15,35.8244836853262,14.4415476080009,2.296588,,,269.98098731393,2.624672,0,1.75847446572,0.53644030588,23,5,7.926,269.98098731393,2.296588,0.223694,1.86303155568,0,0,-2.908022,35.4, 0.7, -0.6,0,0,1024,1024,1024,1024,0,0,0,0,30.1,0,0,63,3.946,3.93,0,0,0,0,2.568,97.52,269.98098731393,2.296588,11,AutoTakeoff,
507900,2023-04-01 05:40:15,35.824483789865,14.4415478020562,2.952756,,,270.63715531393,3.28084,0,1.70317590752,0.60536091176,23,5,7.926,270.63715531393,2.952756,0.223694,1.86303155568,0,0,-3.131716,35.5, 0.9, -0.7,0,0,1024,1024,1024,1024,0,0,0,0,30.1,0,0,63,3.946,3.93,0,0,0,0,2.568,97.52,270.63715531393,2.952756,6,P-GPS,
508000,2023-04-01 05:40:16,35.8244838984692,14.4415479767427,3.28084,,,270.96523931393,3.608924,0,1.64923561708,0.67048230492,23,5,7.926,270.96523931393,3.28084,0.223694,1.86303155568,0,0,-2.908022,35.1, 0.8, -0.7,0,0,1024,1024,1024,1024,0,0,0,0,30.1,0,0,63,3.946,3.93,0,0,0,0,2.568,97.52,270.96523931393,3.28084,6,P-GPS,
508100,2023-04-01 05:40:16,35.8244843463434,14.4415482366632,3.608924,,,271.29332331393,3.937008,0,1.47032156936,0.85107614272,23,5,7.926,271.29332331393,3.608924,0.223694,1.86303155568,0,0,-2.23694,35, 1, -0.9,0,0,1024,1024,1024,1024,0,0,0,0,30.1,0,0,63,3.946,3.93,0,0,0,0,2.568,97.52,271.29332331393,3.608924,6,P-GPS,
508200,2023-04-01 05:40:16,35.8244844789223,14.4415483509411,3.937008,,,271.62140731393,4.265092,0,1.41432747308,0.9100886118,23,5,7.926,271.62140731393,3.937008,0.223694,1.86303155568,0,0,-1.565858,34.9, 1.2, -1.1,0,0,1024,1024,1024,1024,0,0,0,0,30.1,0,0,63,3.946,3.93,0,0,0,0,2.568,97.52,271.62140731393,3.937008,6,P-GPS,
508300,2023-04-01 05:40:16,35.824484561048,14.4415484194154,4.265092,,,271.94949131393,4.593176,0,1.37995083156,0.94625659196,23,5,7.926,271.94949131393,4.265092,0.223694,1.86303155568,0,0,-0.894776,34.9, 1.1, -1.2,0,0,1024,1024,1024,1024,0,0,0,0,30.1,0,0,63,3.946,3.93,0,0,0,0,2.568,97.52,271.94949131393,4.265092,6,P-GPS,
508400,2023-04-01 05:40:16,35.8244846209935,14.4415484816706,4.265092,,,271.94949131393,4.593176,0,1.35396001708,0.97484911256,23,5,7.926,271.94949131393,4.265092,0.223694,1.86303155568,0,0,-0.447388,35, 0.3, -1.3,0,0,1024,1024,1024,1024,0,0,0,0,30.1,0,0,63,3.946,3.93,0,0,0,0,2.568,97.52,271.94949131393,4.265092,6,P-GPS,
508500,2023-04-01 05:40:16,35.8244844949031,14.4415483242338,4.265092,,,271.94949131393,4.593176,0,1.4109580504,1.04031171308,23,5,7.862,271.94949131393,4.265092,0.223694,1.86303155568,0,0,-0.223694,34.8, 0.6, -0.8,0,0,1024,1024,1024,1024,0,0,0,0,30.1,0,0,63,3.956,3.949,0,0,0,0,5.356,97.52,271.94949131393,4.265092,6,P-GPS,
508600,2023-04-01 05:40:16,35.8244844721643,14.4415484191189,4.265092,,,271.94949131393,4.593176,0,1.41121723676,1.06958336756,23,5,7.862,271.94949131393,4.265092,0.223694,1.86303155568,0,0,0,34.9, 0.6, -1.7,0,0,1024,1024,1024,1024,0,0,0,0,30.1,0,0,63,3.956,3.949,0,0,0,0,5.356,97.52,271.94949131393,4.265092,6,P-GPS,
508700,2023-04-01 05:40:16,35.8244843917908,14.4415486143504,4.265092,,,271.94949131393,4.593176,0,1.42561028184,1.13435371084,23,5,7.862,271.94949131393,4.265092,0.223694,1.86303155568,0,0,0,35, 1, -2.1,0,0,1024,1024,1024,1024,0,0,0,0,30.1,0,0,63,3.956,3.949,0,0,0,0,5.356,97.52,271.94949131393,4.265092,6,P-GPS,
508800,2023-04-01 05:40:16,35.8244843254464,14.4415488024414,4.593176,,,272.27757531393,4.593176,0.223694,1.43811356308,1.19503284664,23,5,7.862,272.27757531393,4.593176,0.223694,1.86303155568,0,0.223694,0,34.9, 1.2, -3,0,0,1024,1024,1024,1024,0,0,0,0,30.1,0,0,63,3.956,3.949,0,0,0,0,5.356,97.52,272.27757531393,4.593176,6,P-GPS,
508900,2023-04-01 05:40:16,35.8244840490164,14.4415490651325,4.593176,,,272.27757531393,4.593176,0.223694,1.52617130868,1.32235568536,23,5,7.862,272.27757531393,4.593176,0.223694,1.86303155568,0,0.223694,0,34.8, 1.8, -2.9,0,0,1024,1024,1024,1024,0,0,0,0,30.1,0,0,63,3.956,3.949,0,0,0,0,5.356,97.52,272.27757531393,4.593176,6,P-GPS,
509000,2023-04-01 05:40:16,35.8244840707634,14.4415492287011,4.593176,,,272.27757531393,4.593176,0.223694,1.51323495656,1.37139112,23,5,7.862,272.27757531393,4.593176,0.223694,1.86303155568,0,0.223694,0,34.8, 2.8, -3.2,0,0,1024,1024,1024,1024,0,0,0,0,30.1,0,0,63,3.956,3.949,0,0,0,0,5.356,97.52,272.27757531393,4.593176,6,P-GPS,
509100,2023-04-01 05:40:17,35.8244842041713,14.4415494043305,4.593176,,,272.27757531393,4.593176,0,1.46091212024,1.44258206716,23,5,7.862,272.27757531393,4.593176,0.223694,1.86303155568,0,0,0,34.7, 2.9, -3.4,0,0,1024,1024,1024,1024,0,0,0,0,30.1,0,0,63,3.956,3.949,0,0,0,0,5.356,97.52,272.27757531393,4.593176,6,P-GPS,
509200,2023-04-01 05:40:17,35.824484326548,14.441549560786,4.593176,,,272.27757531393,4.593176,0,1.41439965156,1.50689309284,23,5,7.862,272.27757531393,4.593176,0.223694,1.86303155568,0,0,0,34.7, 3.3, -3.1,0,0,1024,1024,1024,1024,0,0,0,0,30.1,0,0,63,3.956,3.949,0,0,0,0,5.356,97.52,272.27757531393,4.593176,6,P-GPS,
509300,2023-04-01 05:40:17,35.8244844024172,14.4415497273414,4.92126,,,272.60565931393,4.593176,0,1.38632222284,1.56340556184,23,5,7.862,272.60565931393,4.92126,0.223694,1.86303155568,0,0,0,34.7, 3.6, -2.6,0,0,1024,1024,1243,1024,0,0,33,0,30.1,0,0,63,3.956,3.949,0,0,0,0,5.356,97.52,272.60565931393,4.92126,6,P-GPS,
509400,2023-04-01 05:40:17,35.824484623507,14.4415499542033,4.92126,,,272.60565931393,4.593176,0,1.30806434632,1.6683399484,23,5,7.862,272.60565931393,4.92126,0.223694,1.86303155568,0,0,0,34.8, 3.9, -2.3,0,0,1024,1024,1286,1024,0,0,40,0,30.1,0,0,63,3.956,3.949,0,0,0,0,5.356,97.52,272.60565931393,4.92126,6,P-GPS,
509500,2023-04-01 05:40:17,35.8244846670923,14.4415500329335,4.92126,,,272.60565931393,4.593176,0,1.2938484666,1.6965387682,23,5,7.886,272.60565931393,4.92126,0.223694,1.86303155568,0,0,-0.447388,34.9, 2.9, -2.4,0,0,1024,1024,1294,1024,0,0,41,0,30.1,0,0,63,3.943,3.933,0,0,0,0,3.669,97.52,272.60565931393,4.92126,6,P-GPS,
509600,2023-04-01 05:40:17,35.8244847064379,14.4415500868108,5.249344,,,272.93374331393,4.92126,0,1.28092851868,1.71798890012,23,5,7.886,272.93374331393,5.249344,0.223694,1.86303155568,0,0,-0.894776,34.7, 2.9, -2.7,0,0,1024,1024,1294,1024,0,0,41,0,30.1,0,0,63,3.943,3.933,0,0,0,0,3.669,97.52,272.93374331393,5.249344,6,P-GPS,
509700,2023-04-01 05:40:17,35.8244847731406,14.4415501098086,5.577428,,,273.26182731393,4.92126,0,1.2573655258,1.74326121064,23,5,7.886,273.26182731393,5.577428,0.223694,1.86303155568,0,0,-1.342164,34.7, 3.3, -2.3,0,0,1024,1024,1294,1024,0,0,41,0,30.1,0,0,63,3.943,3.933,0,0,0,0,3.669,97.52,273.26182731393,5.577428,6,P-GPS,
509800,2023-04-01 05:40:17,35.8244848668617,14.4415500317209,5.577428,,,273.26182731393,5.249344,0,1.22118114144,1.78452433532,23,5,7.886,273.26182731393,5.577428,0.223694,1.86303155568,0,0,-1.565858,34.7, 3.6, -1.5,0,0,1024,1024,1295,1024,0,0,41,0,30.1,0,0,63,3.943,3.933,0,0,0,0,3.669,97.52,273.26182731393,5.577428,6,P-GPS,
509900,2023-04-01 05:40:17,35.8244848583009,14.4415499339185,5.905512,,,273.58991131393,5.577428,0,1.22219164016,1.81362538612,23,5,7.886,273.58991131393,5.905512,0.223694,1.86303155568,0,0,-1.789552,34.7, 2.9, -1.5,0,0,1024,1024,1286,1024,0,0,40,0,30.1,0,0,63,3.943,3.933,0,0,0,0,3.669,97.52,273.58991131393,5.905512,6,P-GPS,
510000,2023-04-01 05:40:17,35.8244848238683,14.4415498272572,5.905512,,,273.58991131393,5.905512,0,1.2332349476,1.8475886418,23,5,7.886,273.58991131393,5.905512,0.223694,1.86303155568,0,0,-1.789552,34.7, 1.9, -1.7,0,0,1024,1024,1286,1024,0,0,40,0,30.1,0,0,63,3.943,3.933,0,0,0,0,3.669,97.52,273.58991131393,5.905512,6,P-GPS,
510100,2023-04-01 05:40:18,35.8244847815597,14.4415497211972,6.233596,,,273.91799531393,6.233596,0,1.2479823234,1.88255583452,23,5,7.886,273.91799531393,6.233596,0.223694,1.86303155568,0,0,-1.789552,34.7, 1.5, -2.2,0,0,1024,1024,1283,1024,0,0,39,0,30.1,0,0,63,3.943,3.933,0,0,0,0,3.669,97.52,273.91799531393,6.233596,6,P-GPS,"Home Point updated. RTH altitude adjusted to 15 m (Code: 120852)"
510200,2023-04-01 05:40:18,35.8244847184648,14.4415495694059,6.56168,,,274.24607931393,6.233596,0,1.2713911168,1.93301515372,23,5,7.886,274.24607931393,6.56168,0.223694,1.86303155568,0,0,-1.565858,34.7, 1.1, -1.8,0,0,1024,1024,1280,1024,0,0,39,0,30.1,0,0,63,3.943,3.933,0,0,0,0,3.669,97.52,274.24607931393,6.56168,6,P-GPS,
510300,2023-04-01 05:40:18,35.8244845948211,14.4415492936816,6.56168,,,274.24607931393,6.56168,0,1.32108271944,2.02622381812,23,5,7.886,274.24607931393,6.56168,0.223694,1.86303155568,0,0,-1.565858,34.8, 0.8, -2,0,0,1024,1024,1278,1024,0,0,38,0,30.1,0,0,63,3.943,3.933,0,0,0,0,3.669,97.52,274.24607931393,6.56168,6,P-GPS,
510400,2023-04-01 05:40:18,35.8244844981119,14.4415490778636,6.889764,,,274.57416331393,6.889764,0,1.3631398074,2.09917001468,22,5,7.886,274.57416331393,6.889764,0.223694,1.86303155568,0,0,-1.565858,34.7, 0, -1.9,0,0,1024,1024,1279,1024,0,0,39,0,30.1,0,0,63,3.943,3.933,0,0,0,0,3.669,97.52,274.57416331393,6.889764,6,P-GPS,
510500,2023-04-01 05:40:18,35.8244844661187,14.4415490137226,7.217848,,,274.90224731393,7.217848,0,1.37730975536,2.12144691828,22,5,7.855,274.90224731393,7.217848,0.223694,1.86303155568,0,0,-1.565858,34.8, 0.8, -1.7,0,0,1024,1024,1280,1024,0,0,39,0,30.1,0,0,63,3.939,3.927,0,0,0,0,4.777,97.52,274.90224731393,7.217848,6,P-GPS,
510600,2023-04-01 05:40:18,35.8244844586409,14.4415491057133,7.545932,,,275.23033131393,7.217848,0,1.37637143512,2.14879928136,22,5,7.855,275.23033131393,7.545932,0.223694,1.86303155568,0,0,-1.565858,34.9, 1, -2.4,0,0,1024,1024,1280,1024,0,0,39,0,30.1,0,0,63,3.939,3.927,0,0,0,0,4.777,97.52,275.23033131393,7.545932,6,P-GPS,
510700,2023-04-01 05:40:18,35.8244844806346,14.4415491617329,7.545932,,,275.23033131393,7.545932,0,1.36644033244,2.16721135544,22,5,7.855,275.23033131393,7.545932,0.223694,1.86303155568,0,0,-1.565858,34.8, 2.6, -2.7,0,0,1024,1024,1285,1024,0,0,40,0,30.1,0,0,63,3.939,3.927,0,0,0,0,4.777,97.52,275.23033131393,7.545932,6,P-GPS,
510800,2023-04-01 05:40:18,35.8244845316424,14.4415492280166,7.874016,,,275.55841531393,7.874016,0,1.3458497806,2.19424547704,22,5,7.855,275.55841531393,7.874016,0.223694,1.86303155568,0,0,-1.565858,34.9, 3.1, -3.1,0,0,1024,1024,1291,1024,0,0,40,0,30.1,0,0,63,3.939,3.927,0,0,0,0,4.777,97.52,275.55841531393,7.874016,6,P-GPS,
510900,2023-04-01 05:40:18,35.8244846477757,14.4415492713572,8.2021,,,275.88649931393,8.2021,0,1.30243770572,2.23851385116,22,5,7.855,275.88649931393,8.2021,0.223694,1.86303155568,0,0,-1.565858,34.7, 4, -3,0,0,1024,1024,1291,1024,0,0,40,0,30.1,0,0,63,3.939,3.927,0,0,0,0,4.777,97.52,275.88649931393,8.2021,6,P-GPS,
511000,2023-04-01 05:40:19,35.8244847437049,14.4415492992359,8.530184,,,276.21458331393,8.2021,0,1.2668307492,2.27447185756,22,5,7.855,276.21458331393,8.530184,0.223694,1.86303155568,0,0,-1.565858,34.7, 5.6, -2.8,0,0,1024,1024,1291,1024,0,0,40,0,30.1,0,0,63,3.939,3.927,0,0,0,0,4.777,97.52,276.21458331393,8.530184,6,P-GPS,
511100,2023-04-01 05:40:19,35.8244847065169,14.4415491877103,8.858268,,,276.54266731393,8.530184,0,1.28368770512,2.31014443088,22,5,7.855,276.54266731393,8.858268,0.223694,1.86303155568,0,0,-1.565858,34.9, 4.9, -2.6,0,0,1024,1024,1292,1024,0,0,41,0,30.1,0,0,63,3.939,3.927,0,0,0,0,4.777,97.52,276.54266731393,8.858268,6,P-GPS,
511200,2023-04-01 05:40:19,35.8244846892245,14.441549177681,9.186352,,,276.87075131393,8.858268,0,1.29029531688,2.31711621588,22,5,7.855,276.87075131393,9.186352,0.223694,1.86303155568,0,0,-1.565858,34.7, 4.6, -2.5,0,0,1024,1024,1296,1024,0,0,41,0,30.1,0,0,63,3.939,3.927,0,0,0,0,4.777,97.52,276.87075131393,9.186352,6,P-GPS,
511300,2023-04-01 05:40:19,35.8244847046475,14.4415492671866,9.514436,,,277.19883531393,9.186352,0,1.28189964732,2.34418642672,22,5,7.855,277.19883531393,9.514436,0.223694,1.86303155568,0,0,-1.565858,34.7, 4.8, -2.7,0,0,1024,1024,1295,1024,0,0,41,0,30.1,0,0,63,3.939,3.927,0,0,0,0,4.777,97.52,277.19883531393,9.514436,6,P-GPS,
511400,2023-04-01 05:40:19,35.8244847031591,14.4415493390453,9.84252,,,277.52691931393,9.514436,0,1.2805774688,2.36544955076,22,5,7.855,277.52691931393,9.84252,0.223694,1.86303155568,0,0,-1.789552,34.7, 4.4, -3.3,0,0,1024,1024,1294,1024,0,0,41,0,30.1,0,0,63,3.939,3.927,0,0,0,0,4.777,97.52,277.52691931393,9.84252,6,P-GPS,
511500,2023-04-01 05:40:19,35.8244848639858,14.4415494868568,10.170604,,,277.85500331393,9.514436,0,1.21923560332,2.43862868696,22,5,7.855,277.85500331393,10.170604,0.223694,1.86303155568,0,0,-1.789552,34.7, 4.1, -3.6,0,0,1024,1024,1294,1024,0,0,41,0,30.1,0,0,63,3.939,3.927,0,0,0,0,4.777,97.52,277.85500331393,10.170604,6,P-GPS,
511600,2023-04-01 05:40:19,35.8244848744225,14.4415495024937,10.826772,,,278.51117131393,9.84252,0,1.21521985516,2.4446195008,23,5,7.862,278.51117131393,10.826772,0.223694,1.86303155568,0,0,-1.789552,34.6, 4.1, -4.1,0,0,1024,1024,1293,1024,0,0,41,0,30.1,0,0,63,3.934,3.926,0,0,0,0,4.416,97.52,278.51117131393,10.826772,6,P-GPS,
511700,2023-04-01 05:40:19,35.8244848555676,14.4415495368125,11.154856,,,278.83925531393,10.170604,0,1.22168967164,2.45688328072,23,5,7.862,278.83925531393,11.154856,0.223694,1.86303155568,0,0,-1.789552,34.6, 4, -4.3,0,0,1024,1024,1293,1024,0,0,41,0,30.1,0,0,63,3.934,3.926,0,0,0,0,4.416,97.52,278.83925531393,11.154856,6,P-GPS,
511800,2023-04-01 05:40:19,35.8244848514476,14.4415495690549,11.48294,,,279.16733931393,10.498688,0,1.22289373992,2.46653879284,23,5,7.862,279.16733931393,11.48294,0.223694,1.86303155568,0,0,-1.789552,34.7, 4.2, -4,0,0,1024,1024,1294,1024,0,0,41,0,30.1,0,0,63,3.934,3.926,0,0,0,0,4.416,97.52,279.16733931393,11.48294,6,P-GPS,
511900,2023-04-01 05:40:19,35.8244850001701,14.4415496539383,11.811024,,,279.49542331393,10.826772,0,1.16820213712,2.526328821,23,5,7.862,279.49542331393,11.811024,0.223694,1.86303155568,0,0,-1.789552,34.7, 4, -4.5,0,0,1024,1024,1293,1024,0,0,41,0,30.1,0,0,63,3.934,3.926,0,0,0,0,4.416,97.52,279.49542331393,11.811024,6,P-GPS,
512000,2023-04-01 05:40:19,35.8244850261845,14.4415496753326,12.139108,,,279.82350731393,11.154856,0,1.15868113944,2.53773630168,23,5,7.862,279.82350731393,12.139108,0.223694,1.86303155568,0,0,-1.789552,34.7, 3.8, -4.3,0,0,1024,1024,1293,1024,0,0,41,0,30.1,0,0,63,3.934,3.926,0,0,0,0,4.416,97.52,279.82350731393,12.139108,6,P-GPS,
512100,2023-04-01 05:40:20,35.824485016155,14.4415496506186,12.139108,,,279.82350731393,11.154856,0,1.16237536528,2.54591215496,23,5,7.862,279.82350731393,12.139108,0.223694,1.86303155568,0,0,-1.789552,34.7, 3.6, -4.3,0,0,1024,1024,1295,1024,0,0,41,0,30.1,0,0,63,3.934,3.926,0,0,0,0,4.416,97.52,279.82350731393,12.139108,6,P-GPS,
512200,2023-04-01 05:40:20,35.8244850078344,14.4415496290324,12.467192,,,280.15159131393,11.48294,0,1.16548232076,2.55298236516,23,5,7.862,280.15159131393,12.467192,0.223694,1.86303155568,0,0,-1.789552,34.7, 3.5, -4.3,0,0,1024,1024,1295,1024,0,0,41,0,30.1,0,0,63,3.934,3.926,0,0,0,0,4.416,97.52,280.15159131393,12.467192,6,P-GPS,
512300,2023-04-01 05:40:20,35.824485009274,14.4415495903885,12.795276,,,280.47967531393,11.811024,0,1.16516736012,2.56442593508,23,5,7.862,280.47967531393,12.795276,0.223694,1.86303155568,0,0,-1.789552,34.7, 3.5, -4.2,0,0,1024,1024,1294,1024,0,0,41,0,30.1,0,0,63,3.934,3.926,0,0,0,0,4.416,97.52,280.47967531393,12.795276,6,P-GPS,
512400,2023-04-01 05:40:20,35.824485009918,14.4415495850924,13.12336,,,280.80775931393,12.139108,0,1.16497050972,2.5660105808,23,5,7.862,280.80775931393,13.12336,0.223694,1.86303155568,0,0,-1.789552,34.7, 3.5, -4.2,0,0,1024,1024,1293,1024,0,0,41,0,30.1,0,0,63,3.934,3.926,0,0,0,0,4.416,97.52,280.80775931393,13.12336,6,P-GPS,
512500,2023-04-01 05:40:20,35.8244850197294,14.4415495617811,13.451444,,,281.13584331393,12.467192,0,1.16158468284,2.57377960992,23,5,7.862,281.13584331393,13.451444,0.223694,1.86303155568,0,0,-1.789552,34.7, 3.4, -4,0,0,1024,1024,1293,1024,0,0,41,0,30.1,0,0,63,3.934,3.926,0,0,0,0,4.416,97.52,281.13584331393,13.451444,6,P-GPS,
512600,2023-04-01 05:40:20,35.8244850092756,14.4415495336795,13.779528,,,281.46392731393,12.467192,0,1.165682452,2.58292659184,22,5,7.862,281.46392731393,13.779528,0.223694,1.86303155568,0,0,-1.789552,34.7, 3.1, -4,0,0,1024,1024,1293,1024,0,0,41,0,30.1,0,0,63,3.931,3.919,0,0,0,0,4.416,97.52,281.46392731393,13.779528,6,P-GPS,
512700,2023-04-01 05:40:20,35.8244849261566,14.4415494789815,14.107612,,,281.79201131393,12.795276,0,1.19669295168,2.61729995252,22,5,7.862,281.79201131393,14.107612,0.223694,1.86303155568,0,0,-1.789552,34.7, 3.2, -4,0,0,1024,1024,1293,1024,0,0,41,0,30.1,0,0,63,3.931,3.919,0,0,0,0,4.416,97.52,281.79201131393,14.107612,6,P-GPS,
512800,2023-04-01 05:40:20,35.8244846905704,14.4415493138026,14.435696,,,282.12009531393,13.12336,0,1.28576775768,2.71617134676,23,5,7.862,282.12009531393,14.435696,0.223694,1.86303155568,0,0,-1.565858,34.7, 3.2, -3.8,0,0,1024,1024,1293,1024,0,0,41,0,30.1,0,0,63,3.931,3.919,0,0,0,0,4.416,97.52,282.12009531393,14.435696,6,P-GPS,
512900,2023-04-01 05:40:20,35.8244846759649,14.4415493168563,14.435696,,,282.12009531393,13.451444,0,1.29100069748,2.72157817108,23,5,7.862,282.12009531393,14.435696,0.223694,1.86303155568,0,0,-1.789552,34.7, 3.1, -4.1,0,0,1024,1024,1293,1024,0,0,41,0,30.1,0,0,63,3.931,3.919,0,0,0,0,4.416,97.52,282.12009531393,14.435696,6,P-GPS,
513000,2023-04-01 05:40:20,35.8244846757711,14.4415493180187,14.76378,,,282.44817931393,13.779528,0,1.2910433484,2.72192922096,23,5,7.862,282.44817931393,14.76378,0.223694,1.86303155568,0,0,-1.789552,34.7, 3.4, -3.9,0,0,1024,1024,1293,1024,0,0,41,0,30.1,0,0,63,3.931,3.919,0,0,0,0,4.416,97.52,282.44817931393,14.76378,6,P-GPS,
513100,2023-04-01 05:40:21,35.824484740045,14.4415493026421,15.091864,,,282.77626331393,14.107612,0,1.26807090672,2.74581373616,23,5,7.862,282.77626331393,15.091864,0.223694,1.86303155568,0,0,-1.565858,34.7, 3.4, -4.3,0,0,1024,1024,1293,1024,0,0,41,0,30.1,0,0,63,3.931,3.919,0,0,0,0,4.416,97.52,282.77626331393,15.091864,6,P-GPS,
513200,2023-04-01 05:40:21,35.8244849387135,14.4415492791414,15.419948,,,283.10434731393,14.107612,0,1.19656171808,2.81863197996,22,5,7.862,283.10434731393,15.419948,0.223694,1.86303155568,0,0,-1.565858,34.6, 3.4, -4.4,0,0,1024,1024,1274,1024,0,0,38,0,30.1,0,0,63,3.931,3.919,0,0,0,0,4.416,97.52,283.10434731393,15.419948,6,P-GPS,
513300,2023-04-01 05:40:21,35.8244849595226,14.4415492384413,15.748032,,,283.43243131393,14.435696,0,1.19027890948,2.83286754472,22,5,7.862,283.43243131393,15.748032,0.223694,1.86303155568,0,0,-1.565858,34.8, 3.1, -4,0,0,1024,1024,1170,1024,0,0,22,0,30.1,0,0,63,3.931,3.919,0,0,0,0,4.416,97.52,283.43243131393,15.748032,6,P-GPS,
513400,2023-04-01 05:40:21,35.8244849699479,14.4415492081081,15.748032,,,283.43243131393,14.76378,0,1.18752628472,2.84261163952,22,5,7.862,283.43243131393,15.748032,0.223694,1.86303155568,0,0,-1.565858,34.8, 2.7, -4.5,0,0,1024,1024,1024,1024,0,0,0,0,30.1,0,0,63,3.931,3.919,0,0,0,0,4.416,97.52,283.43243131393,15.748032,6,P-GPS,
513500,2023-04-01 05:40:21,35.824484924638,14.4415492115154,16.076116,,,283.76051531393,15.091864,0,1.20382549784,2.85917331984,22,5,7.862,283.76051531393,16.076116,0.223694,1.86303155568,0,0,-1.342164,34.6, 3.2, -4.7,0,0,1024,1024,1024,1024,0,0,0,0,30.1,0,0,63,3.931,3.919,0,0,0,0,4.416,97.52,283.76051531393,16.076116,6,P-GPS,
513600,2023-04-01 05:40:21,35.8244848438851,14.4415491803853,16.076116,,,283.76051531393,15.091864,0,1.234169987,2.8900427434,23,5,7.852,283.76051531393,16.076116,0.223694,1.86303155568,0,0,-0.671082,34.7, 3.1, -4.4,0,0,1024,1024,1024,1024,0,0,0,0,30.1,0,0,63,3.928,3.916,0,0,0,0,4.438,97.52,283.76051531393,16.076116,6,P-GPS,
513700,2023-04-01 05:40:21,35.8244849020157,14.4415491896112,16.4042,,,284.08859931393,15.419948,0,1.21278547188,2.91142725852,23,5,7.852,284.08859931393,16.4042,0.223694,1.86303155568,0,0,-0.223694,34.8, 2.9, -4.1,0,0,1024,1024,1024,1024,0,0,0,0,30.1,0,0,63,3.928,3.916,0,0,0,0,4.438,97.52,284.08859931393,16.4042,6,P-GPS,
513800,2023-04-01 05:40:21,35.8244849813128,14.4415491953479,16.4042,,,284.08859931393,15.419948,0,1.18386158644,2.94040691824,23,5,7.852,284.08859931393,16.4042,0.223694,1.86303155568,0,0,0,34.8, 2.9, -4,0,0,1024,1024,1024,1024,0,0,0,0,30.1,0,0,63,3.928,3.916,0,0,0,0,4.438,97.52,284.08859931393,16.4042,6,P-GPS,
513900,2023-04-01 05:40:21,35.82448513896,14.441549167692,16.4042,,,284.08859931393,15.419948,0,1.127870771,2.99850403296,23,5,7.852,284.08859931393,16.4042,0.223694,1.86303155568,0,0,0,34.8, 3, -4.1,0,0,1024,1024,1024,1024,0,0,0,0,30.1,0,0,63,3.928,3.916,0,0,0,0,4.438,97.52,284.08859931393,16.4042,6,P-GPS,
514000,2023-04-01 05:40:22,35.8244853849943,14.4415491232072,16.4042,,,284.08859931393,15.419948,0,1.041010532,3.08922910148,23,5,7.852,284.08859931393,16.4042,0.223694,1.86303155568,0,0,0,34.7, 3, -3.9,0,0,1024,1024,1154,1024,0,0,20,0,30.1,0,0,63,3.928,3.916,0,0,0,0,4.438,97.52,284.08859931393,16.4042,6,P-GPS,
514100,2023-04-01 05:40:22,35.8244853989712,14.4415491169031,16.4042,,,284.08859931393,15.419948,0,1.03627299904,3.09465889168,23,5,7.852,284.08859931393,16.4042,0.223694,1.86303155568,0,0,0,34.8, 2.5, -4,0,0,1024,1024,1073,1024,0,0,7,0,30.1,0,0,63,3.928,3.916,0,0,0,0,4.438,97.52,284.08859931393,16.4042,6,P-GPS,
514200,2023-04-01 05:40:22,35.8244854095976,14.4415490986352,16.4042,,,284.08859931393,15.419948,0,1.03333664724,3.10130915436,23,5,7.852,284.08859931393,16.4042,0.223694,1.86303155568,0,0,-0.223694,34.8, 2.3, -3.8,0,0,1024,1024,1024,1024,0,0,0,0,30.1,0,0,63,3.928,3.916,0,0,0,0,4.438,97.52,284.08859931393,16.4042,6,P-GPS,
514300,2023-04-01 05:40:22,35.8244854146775,14.4415490494091,16.4042,,,284.08859931393,15.419948,0,1.03404858952,3.11599091336,23,5,7.852,284.08859931393,16.4042,0.223694,1.86303155568,0,0,0,34.7, 2.7, -3.9,0,0,1024,833,1024,1024,0,-29,0,0,30.1,0,0,63,3.928,3.916,0,0,0,0,4.438,97.52,284.08859931393,16.4042,6,P-GPS,
514400,2023-04-01 05:40:22,35.8244854319912,14.4415490089085,16.4042,,,284.08859931393,15.419948,0,1.03008861564,3.12953422088,23,5,7.852,284.08859931393,16.4042,0.223694,1.86303155568,0,0,0,34.8, 3, -3.8,0,0,1024,516,1024,1024,0,-77,0,0,30.1,0,0,63,3.928,3.916,0,0,0,0,4.438,97.52,284.08859931393,16.4042,6,P-GPS,
514500,2023-04-01 05:40:22,35.8244853802172,14.4415489432209,16.4042,,,284.08859931393,15.419948,0,1.052493472,3.15663395928,23,5,7.852,284.08859931393,16.4042,0.223694,1.86303155568,0,0,0,34.7, 2.9, -6.5,0,0,1024,503,1024,1024,0,-79,0,0,30.1,0,0,63,3.928,3.916,0,0,0,0,4.438,97.52,284.08859931393,16.4042,6,P-GPS,
514600,2023-04-01 05:40:22,35.8244854470567,14.4415488911891,16.4042,,,284.08859931393,15.419948,0.223694,1.0320374346,3.18547254288,23,5,7.847,284.08859931393,16.4042,0.223694,1.86303155568,0,-0.223694,0,34.4, 2.6, -14.2,0,0,1024,516,1024,1024,0,-77,0,0,30.1,0,0,63,3.914,3.907,0,0,0,0,4.493,97.52,284.08859931393,16.4042,6,P-GPS,
514700,2023-04-01 05:40:22,35.8244855731146,14.4415486792895,16.4042,,,284.08859931393,15.419948,0.4921268,1.00401249932,3.26321860836,23,5,7.847,284.08859931393,16.4042,0.4921268,1.86303155568,0.223694,-0.447388,0,34.3, 2.8, -18.7,0,0,1024,516,1024,1024,0,-77,0,0,30.1,0,0,63,3.914,3.907,0,0,0,0,4.493,97.52,284.08859931393,16.4042,6,P-GPS,
514800,2023-04-01 05:40:22,35.8244858205477,14.4415482846633,16.4042,,,284.08859931393,15.748032,1.11847,0.96226381032,3.4107940724,23,5,7.847,284.08859931393,16.4042,1.11847,1.86303155568,0.671082,-0.894776,0,34.3, 2.8, -19.2,0,0,1024,525,1024,1024,0,-76,0,0,30.1,0,0,63,3.914,3.907,0,0,0,0,4.493,97.52,284.08859931393,16.4042,6,P-GPS,
514900,2023-04-01 05:40:22,35.8244862013691,14.4415476421645,16.4042,,,284.08859931393,15.748032,1.9237684,0.94718506968,3.6462271508,23,5,7.847,284.08859931393,16.4042,1.9237684,1.86303155568,1.11847,-1.565858,0,34.4, 2.8, -18.6,0,0,1024,525,1024,1024,0,-76,0,0,30.1,0,0,63,3.914,3.907,0,0,0,0,4.493,97.52,284.08859931393,16.4042,6,P-GPS,
515000,2023-04-01 05:40:22,35.8244867564796,14.4415468236489,16.4042,,,284.08859931393,15.748032,2.4158952,0.99673231536,3.9619095756,23,5,7.847,284.08859931393,16.4042,2.4158952,1.86303155568,1.342164,-2.013246,0,34.1, 3.2, -17.6,0,0,1024,541,1024,1024,0,-73,0,0,30.1,0,0,63,3.914,3.907,0,0,0,0,4.493,97.52,284.08859931393,16.4042,6,P-GPS,
515100,2023-04-01 05:40:23,35.8244875025406,14.4415457201482,16.4042,,,284.08859931393,15.748032,2.908022,1.19967523524,4.3869423976,23,5,7.847,284.08859931393,16.4042,2.908022,1.86303155568,1.565858,-2.460634,0,34, 3.4, -17.8,0,0,1024,657,1024,1024,0,-56,0,0,30.1,0,0,63,3.914,3.907,0,0,0,0,4.493,97.52,284.08859931393,16.4042,6,P-GPS,
515200,2023-04-01 05:40:23,35.8244883149994,14.4415444689346,16.4042,,,284.08859931393,15.748032,3.5343652,1.5429134352,4.8611550112,23,5,7.847,284.08859931393,16.4042,3.5343652,1.86303155568,2.013246,-2.908022,0,34.1, 3, -15.8,0,0,1024,783,1024,1024,0,-37,0,0,30.1,0,0,63,3.914,3.907,0,0,0,0,4.493,97.52,284.08859931393,16.4042,6,P-GPS,
515300,2023-04-01 05:40:23,35.8244895273206,14.441542703792,16.4042,,,284.08859931393,15.748032,3.914645,2.12041017284,5.5454726184,23,5,7.847,284.08859931393,16.4042,3.914645,2.12041017284,2.013246,-3.35541,0,34.4, 2.2, -12.6,0,0,1024,1024,1024,1024,0,0,0,0,30.1,0,0,63,3.914,3.907,0,0,0,0,4.493,97.52,284.08859931393,16.4042,6,P-GPS,
515400,2023-04-01 05:40:23,35.8244905409048,14.4415410633531,16.4042,,,284.08859931393,15.748032,4.026492,2.6888288262,6.1556104332,23,5,7.847,284.08859931393,16.4042,4.026492,2.6888288262,2.23694,-3.35541,0,34.5, 2.2, -8.4,0,0,1024,1024,1024,1024,0,0,0,0,30.1,0,0,63,3.914,3.907,0,0,0,0,4.493,97.52,284.08859931393,16.4042,6,P-GPS,
515500,2023-04-01 05:40:23,35.8244916476574,14.4415392389341,16.4042,,,284.08859931393,15.748032,4.026492,3.3354987944,6.8296590112,23,5,7.847,284.08859931393,16.4042,4.026492,3.3354987944,2.23694,-3.35541,0,34.7, 1.8, 3.8,0,0,1024,1024,1024,1024,0,0,0,0,30.1,0,0,63,3.914,3.907,0,0,0,0,4.493,97.52,284.08859931393,16.4042,6,P-GPS,
515600,2023-04-01 05:40:23,35.8244926491574,14.441537601865,16.4042,,,284.08859931393,15.748032,3.5343652,3.9249017004,7.4363191356,23,5,7.846,284.08859931393,16.4042,4.026492,3.9249017004,2.013246,-2.908022,0,34.8, 1, 12.4,0,0,1024,1024,1024,1024,0,0,0,0,30.1,0,0,63,3.921,3.906,0,0,0,0,4.105,97.7,284.08859931393,16.4042,6,P-GPS,
515700,2023-04-01 05:40:23,35.8244936445301,14.4415357306925,16.732284,,,284.41668331393,15.419948,2.908022,4.5801838736,8.0983598392,23,5,7.846,284.41668331393,16.732284,4.026492,4.5801838736,1.565858,-2.460634,0,34.9, 1.7, 13.6,0,0,1024,1024,1024,1024,0,0,0,0,30.1,0,0,63,3.921,3.906,0,0,0,0,4.105,97.7,284.41668331393,16.732284,6,P-GPS,
515800,2023-04-01 05:40:23,35.824494340347,14.4415345843617,16.732284,,,284.41668331393,15.419948,2.23694,4.9964896612,8.5219819,22,5,7.846,284.41668331393,16.732284,4.026492,4.9964896612,1.342164,-1.789552,0,34.8, 1.8, 11.6,0,0,1024,1024,1024,980,0,0,0,-7,30.1,0,0,63,3.921,3.906,0,0,0,0,4.105,97.7,284.41668331393,16.732284,6,P-GPS,
515900,2023-04-01 05:40:23,35.8244948810472,14.4415337251218,17.060368,,,284.74476731393,15.091864,1.6105968,5.3125329784,8.8437338788,22,5,7.846,284.74476731393,17.060368,4.026492,5.3125329784,0.894776,-1.342164,0,34.7, 1.7, 9.2,0,0,1024,1024,1024,857,0,0,0,-25,30.1,0,0,63,3.921,3.906,0,0,0,0,4.105,97.7,284.74476731393,17.060368,6,P-GPS,
516000,2023-04-01 05:40:23,35.8244952629817,14.4415331126392,17.060368,,,284.74476731393,15.091864,1.6105968,5.5375986024,9.0723100016,22,5,7.846,284.74476731393,17.060368,4.026492,5.5375986024,0.447388,-0.671082,0,34.7, 2.2, 6.4,0,0,1024,1024,1024,822,0,0,0,-31,30,0,0,63,3.921,3.906,0,0,0,0,4.105,97.7,284.74476731393,17.060368,6,P-GPS,
516100,2023-04-01 05:40:24,35.8244955199123,14.4415326781663,17.388452,,,285.07285131393,15.091864,0.4921268,5.6950133056,9.2313651248,22,5,7.846,285.07285131393,17.388452,4.026492,5.6950133056,0.223694,-0.447388,0,34.6, 2.2, 4.2,0,0,1024,1024,1024,811,0,0,0,-32,29.7,0,0,63,3.921,3.906,0,0,0,0,4.105,97.7,285.07285131393,17.388452,6,P-GPS,
516200,2023-04-01 05:40:24,35.824495444039,14.4415326262856,17.388452,,,285.07285131393,15.091864,0.223694,5.6956694736,9.2630252308,22,5,7.846,285.07285131393,17.388452,4.026492,5.6956694736,0,-0.223694,0,34.3, 2.1, 1.6,0,0,1024,1024,1024,778,0,0,0,-37,29.2,0,0,63,3.921,3.906,0,0,0,0,4.105,97.7,285.07285131393,17.388452,6,P-GPS,
516300,2023-04-01 05:40:24,35.8244954475228,14.4415326538689,17.388452,,,285.07285131393,15.091864,0,5.6890421768,9.2712929476,22,5,7.846,285.07285131393,17.388452,4.026492,5.6956694736,0,0,0,33.9, 1.7, 0.1,0,0,1024,1024,1024,778,0,0,0,-37,28.6,0,0,62,3.921,3.906,0,0,0,0,4.105,97.7,285.07285131393,17.388452,6,P-GPS,
516400,2023-04-01 05:40:24,35.8244954000948,14.4415327438115,17.388452,,,285.07285131393,15.091864,0,5.6574476876,9.3030186704,22,5,7.846,285.07285131393,17.388452,4.026492,5.6956694736,0,0,0,33.1, 2.4, -0.6,0,0,1024,1024,1024,780,0,0,0,-37,27.9,0,0,62,3.921,3.906,0,0,0,0,4.105,97.7,285.07285131393,17.388452,6,P-GPS,
516500,2023-04-01 05:40:24,35.8244952681324,14.4415328468173,17.388452,,,285.07285131393,15.091864,0,5.6081694708,9.3600068612,22,5,7.846,285.07285131393,17.388452,4.026492,5.6956694736,0,0,0,32.2, 2.2, -1.6,0,0,1024,1024,1024,780,0,0,0,-37,27.1,0,0,62,3.921,3.906,0,0,0,0,4.105,97.7,285.07285131393,17.388452,6,P-GPS,
516600,2023-04-01 05:40:24,35.8244946680697,14.4415335000984,17.060368,,,284.74476731393,15.091864,0,5.336942428,9.6520344296,22,5,7.833,285.07285131393,17.388452,4.026492,5.6956694736,0,0,0,31.4, 1.6, -2,0,0,1024,1024,1024,756,0,0,0,-41,26.3,0,0,62,3.922,3.911,0,0,0,0,4.628,97.7,284.74476731393,17.060368,6,P-GPS,
516700,2023-04-01 05:40:24,35.824494582394,14.441533517207,17.060368,,,284.74476731393,15.091864,0,5.3186681492,9.6836945356,22,5,7.833,285.07285131393,17.388452,4.026492,5.6956694736,0,0,0,30.8, 1.3, -1.6,0,0,1024,1024,1024,618,0,0,0,-62,25.4,0,0,62,3.922,3.911,0,0,0,0,4.628,97.7,284.74476731393,17.060368,6,P-GPS,
516800,2023-04-01 05:40:24,35.8244945120924,14.4415335524743,17.060368,,,284.74476731393,15.091864,0,5.2980972824,9.7113848252,22,5,7.833,285.07285131393,17.388452,4.026492,5.6956694736,0,0,0,29.8, 1.5, -2.5,0,0,1024,1024,1024,607,0,0,0,-63,24.2,0,0,62,3.922,3.911,0,0,0,0,4.628,97.7,284.74476731393,17.060368,6,P-GPS,
516900,2023-04-01 05:40:24,35.8244944996153,14.4415335623071,17.060368,,,284.74476731393,15.091864,0,5.293471298,9.7167982112,22,5,7.833,285.07285131393,17.388452,4.026492,5.6956694736,0,0,0,28, 1.8, -3.2,0,0,1024,1024,1024,606,0,0,0,-63,22.2,0,0,62,3.922,3.911,0,0,0,0,4.628,97.7,284.74476731393,17.060368,6,P-GPS,
517000,2023-04-01 05:40:25,35.824494561975,14.4415333686072,17.060368,,,284.74476731393,15.091864,0,5.354987048,9.7784451948,23,5,7.833,285.07285131393,17.388452,4.026492,5.6956694736,0,0,0,26, 2.1, -3,0,0,1024,1024,1024,578,0,0,0,-68,20.2,0,0,62,3.922,3.911,0,0,0,0,4.628,97.7,284.74476731393,17.060368,6,P-GPS,
517100,2023-04-01 05:40:25,35.8244945649166,14.4415333648524,17.060368,,,284.74476731393,15.091864,0,5.356463426,9.7799871896,23,5,7.833,285.07285131393,17.388452,4.026492,5.6956694736,0,0,0,23.9, 1.7, -2.8,0,0,1024,1024,1024,538,0,0,0,-74,18,0,0,62,3.922,3.911,0,0,0,0,4.628,97.7,284.74476731393,17.060368,6,P-GPS,
517200,2023-04-01 05:40:25,35.8244945482592,14.4415333569109,16.732284,,,284.41668331393,15.091864,0,5.3559384916,9.7865160612,23,5,7.833,285.07285131393,17.388452,4.026492,5.6956694736,0,0,0,21.7, 1.1, -2.6,0,0,1024,1024,1024,538,0,0,0,-74,15.6,0,0,62,3.922,3.911,0,0,0,0,4.628,97.7,284.41668331393,16.732284,6,P-GPS,
517300,2023-04-01 05:40:25,35.8244945019771,14.4415333605283,16.732284,,,284.41668331393,15.091864,0,5.3477035832,9.8034123872,23,5,7.833,285.07285131393,17.388452,4.026492,5.6956694736,0,0,0,19.4, 0.5, -2.8,0,0,1024,1024,1024,538,0,0,0,-74,12.9,0,0,62,3.922,3.911,0,0,0,0,4.628,97.7,284.41668331393,16.732284,6,P-GPS,
517400,2023-04-01 05:40:25,35.8244947630389,14.4415330946681,16.732284,,,284.41668331393,15.091864,0,5.4599083112,9.9269360132,23,5,7.833,285.07285131393,17.388452,4.026492,5.6956694736,0,0,0,16.8, 0.3, -3.7,0,0,1024,1024,1024,537,0,0,0,-74,10.1,0,0,62,3.922,3.911,0,0,0,0,4.628,97.7,284.41668331393,16.732284,6,P-GPS,
517500,2023-04-01 05:40:25,35.8244947864806,14.4415331317382,16.732284,,,284.41668331393,15.091864,0,5.4538059488,9.9408467748,23,5,7.833,285.07285131393,17.388452,4.026492,5.6956694736,0,0,0,13.9, 0.1, -3.2,0,0,1024,1024,1024,537,0,0,0,-74,7.3,0,0,62,3.922,3.911,0,0,0,0,4.628,97.7,284.41668331393,16.732284,6,P-GPS,
517600,2023-04-01 05:40:25,35.8244948163149,14.4415331576428,16.732284,,,284.41668331393,15.091864,0,5.4517390196,9.9541669852,23,5,7.834,285.07285131393,17.388452,4.026492,5.6956694736,0,0,0,11, 0.9, -3.3,0,0,1024,1024,1024,516,0,0,0,-77,4.5,0,0,62,3.921,3.907,0,0,0,0,4.446,97.7,284.41668331393,16.732284,6,P-GPS,
517700,2023-04-01 05:40:25,35.824494797953,14.4415331407323,16.4042,,,284.08859931393,15.091864,0,5.453248206,9.9625331272,23,5,7.834,285.07285131393,17.388452,4.026492,5.6956694736,0,0,0,8.1, 1.1, -3.2,0,0,1024,1024,1024,515,0,0,0,-77,1.7,0,0,62,3.921,3.907,0,0,0,0,4.446,97.7,284.08859931393,16.4042,6,P-GPS,
517800,2023-04-01 05:40:25,35.8244947741885,14.4415331243685,16.4042,,,284.08859931393,15.091864,0,5.4537731404,9.9724740724,23,5,7.834,285.07285131393,17.388452,4.026492,5.6956694736,0,0,0,5.2, 1, -2.9,0,0,1024,1024,1024,516,0,0,0,-77,358.7,0,0,62,3.921,3.907,0,0,0,0,4.446,97.7,284.08859931393,16.4042,6,P-GPS,
517900,2023-04-01 05:40:25,35.8244946851911,14.4415329473085,16.4042,,,284.08859931393,15.091864,0,5.4868111992,10.0340882476,23,5,7.834,285.07285131393,17.388452,4.026492,5.6956694736,0,0,0,2.2, 0.5, -2.5,0,0,1024,1024,1024,516,0,0,0,-77,355.7,0,0,62,3.921,3.907,0,0,0,0,4.446,97.7,284.08859931393,16.4042,6,P-GPS,
518000,2023-04-01 05:40:25,35.8244946548887,14.4415329643947,16.4042,,,284.08859931393,15.091864,0,5.4774936136,10.046260164,23,5,7.834,285.07285131393,17.388452,4.026492,5.6956694736,0,0,0,359.2, 0.6, -2.4,0,0,1024,1024,1024,516,0,0,0,-77,352.7,0,0,62,3.921,3.907,0,0,0,0,4.446,97.7,284.08859931393,16.4042,6,P-GPS,
518100,2023-04-01 05:40:26,35.8244946349406,14.441533037638,16.076116,,,283.76051531393,15.091864,0,5.4547902008,10.0690948104,23,5,7.834,285.07285131393,17.388452,4.026492,5.6956694736,0,0,0,356.2, 0.5, -2.5,0,0,1024,1024,1024,516,0,0,0,-77,349.7,0,0,62,3.921,3.907,0,0,0,0,4.446,97.7,283.76051531393,16.076116,6,P-GPS,
518200,2023-04-01 05:40:26,35.8244945883586,14.441533116077,16.076116,,,283.76051531393,15.091864,0,5.4265421684,10.0978677772,23,5,7.834,285.07285131393,17.388452,4.026492,5.6956694736,0,0,0,353.3, -0.3, -2.7,0,0,1024,1024,1024,516,0,0,0,-77,346.7,0,0,62,3.921,3.907,0,0,0,0,4.446,97.7,283.76051531393,16.076116,6,P-GPS,
518300,2023-04-01 05:40:26,35.8244944613882,14.4415332446124,16.076116,,,283.76051531393,15.091864,0,5.3723755,10.157808724,23,5,7.834,285.07285131393,17.388452,4.026492,5.6956694736,0,0,0,350.1, -0.6, -3,0,0,1024,1024,1024,517,0,0,0,-77,343.6,0,0,62,3.921,3.907,0,0,0,0,4.446,97.7,283.76051531393,16.076116,6,P-GPS,
518400,2023-04-01 05:40:26,35.8244943513628,14.4415333394021,16.076116,,,283.76051531393,15.091864,0,5.3299870472,10.2067588568,23,5,7.834,285.07285131393,17.388452,4.026492,5.6956694736,0,0,0,347.2, -1.3, -3.3,0,0,1024,1024,1024,521,0,0,0,-76,340.6,0,0,62,3.921,3.907,0,0,0,0,4.446,97.7,283.76051531393,16.076116,6,P-GPS,
518500,2023-04-01 05:40:26,35.824494264502,14.4415334751592,16.076116,,,283.76051531393,15.091864,0,5.2802167044,10.2579071524,23,5,7.834,285.07285131393,17.388452,4.026492,5.6956694736,0,0,0,344.2, -2, -3,0,0,1024,1024,1024,521,0,0,0,-76,337.6,0,0,62,3.921,3.907,0,0,0,0,4.446,97.7,283.76051531393,16.076116,6,P-GPS,
518600,2023-04-01 05:40:26,35.8244941862504,14.4415336065288,16.076116,,,283.76051531393,15.091864,0,5.2329726084,10.3061355004,23,5,7.829,285.07285131393,17.388452,4.026492,5.6956694736,0,0,0,341.2, -2.5, -3.1,0,0,1024,1024,1024,527,0,0,0,-75,334.6,0,0,62,3.917,3.904,0,0,0,0,4.459,97.7,283.76051531393,16.076116,6,P-GPS,
518700,2023-04-01 05:40:26,35.8244941421582,14.4415337996806,16.076116,,,283.76051531393,15.091864,0,5.1743439976,10.3655187044,23,5,7.829,285.07285131393,17.388452,4.026492,5.6956694736,0,0,0,338.3, -2.4, -3.2,0,0,1024,1024,1024,538,0,0,0,-74,331.7,0,0,62,3.917,3.904,0,0,0,0,4.459,97.7,283.76051531393,16.076116,6,P-GPS,
518800,2023-04-01 05:40:26,35.8244940701525,14.4415339294905,15.748032,,,283.43243131393,15.091864,0,5.1284778544,10.4120410156,23,5,7.829,285.07285131393,17.388452,4.026492,5.6956694736,0,0,0,335.3, -2.5, -3.3,0,0,1024,1024,1024,542,0,0,0,-73,328.8,0,0,62,3.917,3.904,0,0,0,0,4.459,97.7,283.43243131393,15.748032,6,P-GPS,
518900,2023-04-01 05:40:26,35.8244939741911,14.4415340472131,15.748032,,,283.43243131393,15.091864,0,5.0822508188,10.4614176576,23,5,7.829,285.07285131393,17.388452,4.026492,5.6956694736,0,0,0,332.4, -2.8, -3.7,0,0,1024,1024,1024,542,0,0,0,-73,326.1,0,0,62,3.917,3.904,0,0,0,0,4.459,97.7,283.43243131393,15.748032,6,P-GPS,
519000,2023-04-01 05:40:26,35.8244938740531,14.4415341579135,15.748032,,,283.43243131393,15.091864,0,5.0373361192,10.5104662156,23,5,7.829,285.07285131393,17.388452,4.026492,5.6956694736,0,0,0,329.7, -3.3, -3.7,0,0,1024,1024,1024,542,0,0,0,-73,323.3,0,0,62,3.917,3.904,0,0,0,0,4.459,97.7,283.43243131393,15.748032,6,P-GPS,
519100,2023-04-01 05:40:27,35.8244936264258,14.4415341254528,15.748032,,,283.43243131393,15.091864,0,5.0097114464,10.6013454836,23,5,7.829,285.07285131393,17.388452,4.026492,5.6956694736,0,0,0,327, -3.8, -3.4,0,0,1024,1024,1024,547,0,0,0,-72,320.5,0,0,62,3.917,3.904,0,0,0,0,4.459,97.7,283.43243131393,15.748032,6,P-GPS,
519200,2023-04-01 05:40:27,35.8244935212423,14.4415342279105,15.748032,,,283.43243131393,15.091864,0.223694,4.9667652508,10.6502299996,23,5,7.829,285.07285131393,17.388452,4.026492,5.6956694736,0,0.223694,0,324.3, -4, -3.6,0,0,1024,1024,1024,548,0,0,0,-72,317.8,0,0,62,3.917,3.904,0,0,0,0,4.459,97.7,283.43243131393,15.748032,6,P-GPS,
519300,2023-04-01 05:40:27,35.8244934852649,14.4415344056653,15.748032,,,283.43243131393,15.091864,0,4.9132547504,10.7044294764,23,5,7.829,285.07285131393,17.388452,4.026492,5.6956694736,0,0,0,321.7, -4, -3.7,0,0,1024,1024,1024,550,0,0,0,-72,315.1,0,0,62,3.917,3.904,0,0,0,0,4.459,97.7,283.43243131393,15.748032,6,P-GPS,
519400,2023-04-01 05:40:27,35.824493460121,14.4415345574031,15.419948,,,283.10434731393,15.091864,0,4.8683728592,10.7502628112,23,5,7.829,285.07285131393,17.388452,4.026492,5.6956694736,0,0,0,319, -4.5, -3.4,0,0,1024,1024,1024,550,0,0,0,-72,312.4,0,0,62,3.917,3.904,0,0,0,0,4.459,97.7,283.10434731393,15.419948,6,P-GPS,
519500,2023-04-01 05:40:27,35.8244934608034,14.4415346705904,15.419948,,,283.10434731393,15.091864,0,4.8376970052,10.7837273792,23,5,7.829,285.07285131393,17.388452,4.026492,5.6956694736,0,0,0,316.4, -4.5, -3.3,0,0,1024,1024,1024,550,0,0,0,-72,309.8,0,0,62,3.917,3.904,0,0,0,0,4.459,97.7,283.10434731393,15.419948,6,P-GPS,
519600,2023-04-01 05:40:27,35.8244936031393,14.441534839153,15.419948,,,283.10434731393,15.091864,0,4.81299228,10.8557418172,23,5,7.829,285.07285131393,17.388452,4.026492,5.6956694736,0,0,0,313.9, -4.6, -2.9,0,0,1024,1024,1024,557,0,0,0,-71,307.1,0,0,62,3.917,3.904,0,0,0,0,4.459,97.7,283.10434731393,15.419948,6,P-GPS,
519700,2023-04-01 05:40:27,35.8244936207878,14.4415349448636,15.091864,,,282.77626331393,15.091864,0,4.7871392608,10.8876643904,23,5,7.823,285.07285131393,17.388452,4.026492,5.6956694736,0,0,0,310.9, -4.4, -2.8,0,0,1024,1024,1024,556,0,0,0,-71,304.5,0,0,62,3.918,3.905,0,0,0,0,4.489,97.7,282.77626331393,15.091864,6,P-GPS,
519800,2023-04-01 05:40:27,35.824493639816,14.4415350259428,15.091864,,,282.77626331393,15.091864,0,4.768208814,10.9126315828,23,5,7.823,285.07285131393,17.388452,4.026492,5.6956694736,0,0,0,308.2, -4, -3.1,0,0,1024,1024,1024,559,0,0,0,-70,301.9,0,0,62,3.918,3.905,0,0,0,0,4.489,97.7,282.77626331393,15.091864,6,P-GPS,
519900,2023-04-01 05:40:27,35.8244936067248,14.4415350706612,15.091864,,,282.77626331393,15.091864,0,4.751148446,10.9305449692,23,5,7.823,285.07285131393,17.388452,4.026492,5.6956694736,0,0,0,305.7, -4, -3.1,0,0,1024,1024,1024,591,0,0,0,-66,299.4,0,0,62,3.918,3.905,0,0,0,0,4.489,97.7,282.77626331393,15.091864,6,P-GPS,
520000,2023-04-01 05:40:28,35.8244935352889,14.4415351112364,14.76378,,,282.44817931393,15.091864,0,4.7294620936,10.9592195108,23,5,7.823,285.07285131393,17.388452,4.026492,5.6956694736,0,0,0,303.2, -4.1, -2.8,0,0,1024,1024,1024,735,0,0,0,-44,296.8,0,0,62,3.918,3.905,0,0,0,0,4.489,97.7,282.44817931393,14.76378,6,P-GPS,
520100,2023-04-01 05:40:28,35.8244935560041,14.441535156277,14.76378,,,282.44817931393,15.091864,0,4.7204397836,10.9745410336,23,5,7.823,285.07285131393,17.388452,4.026492,5.6956694736,0,0,0,300.7, -4.3, -2.6,0,0,1024,1024,1024,1024,0,0,0,0,294.5,0,0,62,3.918,3.905,0,0,0,0,4.489,97.7,282.44817931393,14.76378,6,P-GPS,
520200,2023-04-01 05:40:28,35.8244935751456,14.4415352008528,14.76378,,,282.44817931393,15.091864,0,4.7113190484,10.9894688556,23,5,7.823,285.07285131393,17.388452,4.026492,5.6956694736,0,0,0,298.8, -4.6, -2.3,0,0,1024,1024,1024,1024,0,0,0,0,293.2,0,0,62,3.918,3.905,0,0,0,0,4.489,97.7,282.44817931393,14.76378,6,P-GPS,
520300,2023-04-01 05:40:28,35.8244936026814,14.4415352651257,14.76378,,,282.44817931393,15.091864,0,4.6982613052,11.0109583576,23,5,7.823,285.07285131393,17.388452,4.026492,5.6956694736,0,0,0,298, -4.8, -2.1,0,0,1024,1024,1024,1024,0,0,0,0,292.7,0,0,62,3.918,3.905,0,0,0,0,4.489,97.7,282.44817931393,14.76378,6,P-GPS,
520400,2023-04-01 05:40:28,35.8244937511926,14.4415353666642,14.435696,,,282.12009531393,15.091864,0,4.6941274468,11.0729334252,23,5,7.823,285.07285131393,17.388452,4.026492,5.6956694736,0,0,0,297.5, -4.9, -2.4,0,0,1024,1024,1024,1024,0,0,0,0,292.5,0,0,62,3.918,3.905,0,0,0,0,4.489,97.7,282.12009531393,14.435696,6,P-GPS,
520500,2023-04-01 05:40:28,35.824493808145,14.4415354541172,14.435696,,,282.12009531393,15.091864,0,4.6798229844,11.1061027176,23,5,7.823,285.07285131393,17.388452,4.026492,5.6956694736,0,0,0,297.5, -4.9, -2.2,0,0,1024,1024,1024,1024,0,0,0,0,292.5,0,0,62,3.918,3.905,0,0,0,0,4.489,97.7,282.12009531393,14.435696,6,P-GPS,
520600,2023-04-01 05:40:28,35.8244938500607,14.4415355259989,14.435696,,,282.12009531393,15.091864,0,4.6674542176,11.1323166292,23,5,7.823,285.07285131393,17.388452,4.026492,5.6956694736,0,0,0,297.4, -4.9, -2.1,0,0,1183,1024,1024,1024,24,0,0,0,292.5,0,0,62,3.918,3.905,0,0,0,0,4.489,97.7,282.12009531393,14.435696,6,P-GPS,
520700,2023-04-01 05:40:28,35.8244938637027,14.4415355639618,14.435696,,,282.12009531393,15.091864,0,4.6595802016,11.1445869708,23,5,7.823,285.07285131393,17.388452,4.026492,5.6956694736,0,0,0,297.3, -5.6, -1.8,0,0,1303,1024,1024,1024,42,0,0,0,292.5,0,0,62,3.918,3.905,0,0,0,0,4.489,97.7,282.12009531393,14.435696,6,P-GPS,
520800,2023-04-01 05:40:28,35.8244939859784,14.4415356227498,14.107612,,,281.79201131393,15.091864,0,4.6640093356,11.1924544264,23,5,7.823,285.07285131393,17.388452,4.026492,5.6956694736,0,0,0,297.4, -8.3, -1.7,0,0,1299,1024,1024,1024,42,0,0,0,292.5,0,0,62,3.918,3.905,0,0,0,0,4.489,97.7,281.79201131393,14.107612,6,P-GPS,
520900,2023-04-01 05:40:28,35.8244940712832,14.4415355789784,14.107612,,,281.79201131393,15.091864,0,4.6896983128,11.2261814616,23,5,7.823,285.07285131393,17.388452,4.026492,5.6956694736,0,0,0,297.4, -10.8, -2.2,0,0,1235,1024,1024,1024,32,0,0,0,292.5,0,0,62,3.918,3.905,0,0,0,0,4.489,97.7,281.79201131393,14.107612,6,P-GPS,
521000,2023-04-01 05:40:28,35.824494179149,14.4415354566187,14.107612,,,281.79201131393,15.091864,0.3131716,4.7398951648,11.2796591536,23,5,7.823,285.07285131393,17.388452,4.026492,5.6956694736,0.223694,-0.223694,0,297.5, -11.1, -2.2,0,0,1240,1024,1024,1024,33,0,0,0,292.5,0,0,62,3.918,3.905,0,0,0,0,4.489,97.7,281.79201131393,14.107612,6,P-GPS,
521100,2023-04-01 05:40:29,35.8244942974858,14.4415352362508,14.107612,,,281.79201131393,15.091864,0.4921268,4.8176510728,11.3578415708,23,5,7.823,285.07285131393,17.388452,4.026492,5.6956694736,0.223694,-0.447388,0,297.4, -9.5, -2,0,0,1248,1024,1024,1024,34,0,0,0,292.5,0,0,62,3.918,3.905,0,0,0,0,4.489,97.7,281.79201131393,14.107612,6,P-GPS,
521200,2023-04-01 05:40:29,35.8244944324925,14.44153495411,14.107612,,,281.79201131393,15.091864,0.7158208,4.9144358528,11.4547575844,23,5,7.823,285.07285131393,17.388452,4.026492,5.6956694736,0.223694,-0.671082,0,297.4, -8.5, -2.1,0,0,1246,1024,1024,1024,34,0,0,0,292.5,0,0,62,3.918,3.905,0,0,0,0,4.489,97.7,281.79201131393,14.107612,6,P-GPS,
521300,2023-04-01 05:40:29,35.824494521435,14.4415346404013,13.779528,,,281.46392731393,15.091864,0.8052984,5.0117455672,11.5530515508,23,5,7.823,285.07285131393,17.388452,4.026492,5.6956694736,0.447388,-0.671082,0,297.5, -8.7, -2.2,0,0,1246,1024,1024,1024,34,0,0,0,292.5,0,0,62,3.918,3.905,0,0,0,0,4.489,97.7,281.46392731393,13.779528,6,P-GPS,
521400,2023-04-01 05:40:29,35.824494696805,14.4415342434277,13.779528,,,281.46392731393,15.091864,1.006623,5.1454397972,11.6868113976,22,5,7.823,285.07285131393,17.388452,4.026492,5.6956694736,0.447388,-0.894776,0,297.5, -8.3, -1.9,0,0,1233,1024,1024,1024,32,0,0,0,292.5,0,0,62,3.918,3.905,0,0,0,0,4.489,97.7,281.46392731393,13.779528,6,P-GPS,
521500,2023-04-01 05:40:29,35.8244949550916,14.4415337009618,13.779528,,,281.46392731393,15.091864,1.2079476,5.3312993832,11.8729006424,22,5,7.823,285.07285131393,17.388452,4.026492,5.6956694736,0.447388,-1.11847,0,297.4, -7.7, -2.1,0,0,1228,1024,1024,1024,31,0,0,0,292.5,0,0,62,3.918,3.905,0,0,0,0,4.489,97.7,281.46392731393,13.779528,6,P-GPS,
521600,2023-04-01 05:40:29,35.8244952112338,14.4415331208515,13.779528,,,281.46392731393,15.091864,1.2079476,5.5266734052,12.0683074728,22,5,7.824,285.07285131393,17.388452,4.026492,5.6956694736,0.447388,-1.11847,0,297.4, -7.3, -2.2,0,0,1206,1024,1024,1024,28,0,0,0,292.5,0,0,62,3.918,3.906,0,0,0,0,4.282,97.7,281.46392731393,13.779528,6,P-GPS,
521700,2023-04-01 05:40:29,35.8244954737212,14.4415322118626,13.779528,,,281.46392731393,15.091864,1.2974252,5.8095146216,12.3537405528,22,5,7.824,285.07285131393,17.388452,4.026492,5.8095146216,0.671082,-1.11847,0,297.4, -7.2, -2.2,0,0,1192,1024,1024,1024,25,0,0,0,292.5,0,0,62,3.918,3.906,0,0,0,0,4.282,97.7,281.46392731393,13.779528,6,P-GPS,
521800,2023-04-01 05:40:29,35.8244956945814,14.4415315321353,13.779528,,,281.46392731393,15.091864,1.2974252,6.0252298516,12.570374418,22,5,7.824,285.07285131393,17.388452,4.026492,6.0252298516,0.671082,-1.11847,0,297.4, -7, -1.8,0,0,1180,1024,1024,1024,24,0,0,0,292.5,0,0,62,3.918,3.906,0,0,0,0,4.282,97.7,281.46392731393,13.779528,6,P-GPS,
521900,2023-04-01 05:40:29,35.8244959140444,14.4415308208851,13.779528,,,281.46392731393,15.091864,1.2974252,6.2491143732,12.7955056588,22,5,7.824,285.07285131393,17.388452,4.026492,6.2491143732,0.671082,-1.342164,0,297.3, -6.6, -1.5,0,0,1168,1024,1024,1024,22,0,0,0,292.5,0,0,62,3.918,3.906,0,0,0,0,4.282,97.7,281.46392731393,13.779528,6,P-GPS,
522000,2023-04-01 05:40:29,35.8244961379072,14.441530123995,13.451444,,,281.13584331393,14.76378,1.4987498,6.469980522,13.0172576344,22,5,7.824,285.07285131393,17.388452,4.026492,6.469980522,0.671082,-1.342164,0,297.3, -6.5, -1.8,0,0,1165,1024,1024,1024,21,0,0,0,292.5,0,0,62,3.918,3.906,0,0,0,0,4.282,97.7,281.13584331393,13.451444,6,P-GPS,
522100,2023-04-01 05:40:30,35.8244964326036,14.4415292720799,13.451444,,,281.13584331393,14.76378,1.4987498,6.7435041528,13.2912405828,22,5,7.824,285.07285131393,17.388452,4.026492,6.7435041528,0.671082,-1.342164,0,297.3, -6.3, -1.6,0,0,1165,1024,1024,1024,21,0,0,0,292.5,0,0,62,3.918,3.906,0,0,0,0,4.282,97.7,281.13584331393,13.451444,6,P-GPS,
522200,2023-04-01 05:40:30,35.8244967040492,14.4415285570603,13.451444,,,281.13584331393,14.76378,1.4987498,6.9770015356,13.5248035824,22,5,7.824,285.07285131393,17.388452,4.026492,6.9770015356,0.671082,-1.342164,0,297.3, -6.1, -1.4,0,0,1145,1024,1024,1024,18,0,0,0,292.5,0,0,62,3.918,3.906,0,0,0,0,4.282,97.7,281.13584331393,13.451444,6,P-GPS,
522300,2023-04-01 05:40:30,35.8244969885119,14.4415278387468,13.451444,,,281.13584331393,14.76378,1.4987498,7.2134844828,13.7612865296,22,5,7.824,285.07285131393,17.388452,4.026492,7.2134844828,0.671082,-1.342164,0,297.4, -6, -1.8,0,0,1145,1024,1024,1024,18,0,0,0,292.5,0,0,62,3.918,3.906,0,0,0,0,4.282,97.7,281.13584331393,13.451444,6,P-GPS,
522400,2023-04-01 05:40:30,35.8244972647754,14.4415271524833,13.451444,,,281.13584331393,14.76378,1.4987498,7.44012491,13.9879597652,22,5,7.824,285.07285131393,17.388452,4.026492,7.44012491,0.671082,-1.342164,0,297.4, -6, -1.9,0,0,1095,1024,1024,1024,11,0,0,0,292.5,0,0,62,3.918,3.906,0,0,0,0,4.282,97.7,281.13584331393,13.451444,6,P-GPS,
522500,2023-04-01 05:40:30,35.8244976862297,14.4415264438917,13.451444,,,281.13584331393,14.76378,1.4987498,7.6963913224,14.2479335268,22,5,7.824,285.07285131393,17.388452,4.026492,7.6963913224,0.671082,-1.342164,0,297.5, -6, -1.3,0,0,1029,1024,1024,1024,1,0,0,0,292.5,0,0,62,3.918,3.906,0,0,0,0,4.282,97.7,281.13584331393,13.451444,6,P-GPS,
522600,2023-04-01 05:40:30,35.8244979910687,14.4415257675072,13.12336,,,280.80775931393,14.76378,1.4987498,7.9251314872,14.4768377336,23,5,7.821,285.07285131393,17.388452,4.026492,7.9251314872,0.671082,-1.342164,0,297.4, -5.5, -1.6,0,0,1024,1024,1024,1024,0,0,0,0,292.5,0,0,62,3.916,3.904,0,0,0,0,4.231,97.7,280.80775931393,13.12336,6,P-GPS,
522700,2023-04-01 05:40:30,35.8244983414117,14.4415251403196,13.12336,,,280.80775931393,14.435696,1.2974252,8.1483926492,14.7021658248,23,5,7.821,285.07285131393,17.388452,4.026492,8.1483926492,0.671082,-1.11847,0,297.2, -0.5, -1.4,0,0,1024,1024,1024,1024,0,0,0,0,292.5,0,0,62,3.916,3.904,0,0,0,0,4.231,97.7,280.80775931393,13.12336,6,P-GPS,
522800,2023-04-01 05:40:30,35.8244986403566,14.441524614524,13.12336,,,280.80775931393,14.435696,1.006623,8.3365488232,14.8921264608,23,5,7.821,285.07285131393,17.388452,4.026492,8.3365488232,0.447388,-0.894776,0,297.1, 1.3, -1.6,0,0,1024,1024,1024,1024,0,0,0,0,292.5,0,0,62,3.916,3.904,0,0,0,0,4.231,97.7,280.80775931393,13.12336,6,P-GPS,
522900,2023-04-01 05:40:30,35.8244988723407,14.441524157287,13.12336,,,280.80775931393,14.435696,0.8052984,8.495571138,15.05167371,23,5,7.821,285.07285131393,17.388452,4.026492,8.495571138,0.447388,-0.671082,0,296.9, 1.5, -2,0,0,1024,1024,1024,1024,0,0,0,0,292.5,0,0,62,3.916,3.904,0,0,0,0,4.231,97.7,280.80775931393,13.12336,6,P-GPS,
523000,2023-04-01 05:40:31,35.824499178504,14.4415239561436,13.12336,,,280.80775931393,14.435696,0.4921268,8.5999346584,15.1782485172,23,5,7.821,285.07285131393,17.388452,4.026492,8.5999346584,0.223694,-0.447388,0,297.1, 0.4, -1.9,0,0,1116,1024,1024,1024,14,0,0,0,292.5,0,0,62,3.916,3.904,0,0,0,0,4.231,97.7,280.80775931393,13.12336,6,P-GPS,
523100,2023-04-01 05:40:31,35.8244992440204,14.4415236885096,13.12336,,,280.80775931393,14.435696,0.3131716,8.6811354484,15.2609584936,23,5,7.821,285.07285131393,17.388452,4.026492,8.6811354484,0.223694,-0.223694,0,297.2, -0.8, -1.1,0,0,1116,1024,1024,1024,14,0,0,0,292.5,0,0,62,3.916,3.904,0,0,0,0,4.231,97.7,280.80775931393,13.12336,6,P-GPS,
