time(millisecond),datetime(utc),latitude,longitude,height_above_takeoff(feet),height_above_ground_at_drone_location(feet),ground_elevation_at_drone_location(feet),altitude_above_seaLevel(feet),height_sonar(feet),speed(mph),distance(feet),mileage(feet),satellites,gpslevel,voltage(v),max_altitude(feet),max_ascent(feet),max_speed(mph),max_distance(feet), xSpeed(mph), ySpeed(mph), zSpeed(mph), compass_heading(degrees), pitch(degrees), roll(degrees),isPhoto,isVideo,rc_elevator,rc_aileron,rc_throttle,rc_rudder,rc_elevator(percent),rc_aileron(percent),rc_throttle(percent),rc_rudder(percent),gimbal_heading(degrees),gimbal_pitch(degrees),gimbal_roll(degrees),battery_percent,voltageCell1,voltageCell2,voltageCell3,voltageCell4,voltageCell5,voltageCell6,current(A),battery_temperature(f),altitude(feet),ascent(feet),flycStateRaw,flycState,message
214700,2023-04-01 05:26:33,35.8244878265419,14.4415503378953,0,Available with any HD 360 subscription,Available with any HD 360 subscription,267.68439931393,0.328084,0,0,0,22,5,0,267.68439931393,0,0,0,0,0,0,109.3, 3, 4.2,0,0,1024,1024,1024,1024,0,0,0,0,104.5,0,0,83,4.197,4.194,0,0,0,0,0,86,267.68439931393,0,41,Motors_Started,
214800,2023-04-01 05:26:33,35.8244880747009,14.4415502601267,0,,,267.68439931393,0.328084,0,0.093417653908,0.093417653908,22,5,0,267.68439931393,0,0,0.093417653908,0,0,0,109.3, 3, 4.2,0,0,1024,1024,1024,1024,0,0,0,0,104.5,0,0,83,4.197,4.194,0,0,0,0,0,86,267.68439931393,0,41,Motors_Started,"Setting new Return-To-Home altitude to 15m (49 ft). Data Recorder File Index is 48. Setting new Maximum Flight Altitude to 35m (115 ft)"
214900,2023-04-01 05:26:33,35.8244881028005,14.4415502589726,0,,,267.68439931393,0.328084,0,0.85975724536,0.103675528252,22,5,0,267.68439931393,0,0,0.85975724536,0,0,0,109.3, 3, 4.3,0,0,1024,1024,1024,1024,0,0,0,0,104.5,0,0,83,4.197,4.194,0,0,0,0,0,86,267.68439931393,0,41,Motors_Started,"Aircraft in Warning Zone (Class D Airspace). Fly with caution"
215000,2023-04-01 05:26:33,35.8244881249266,14.4415502594522,0,,,267.68439931393,0.328084,0,0.86046262596,0.111749675492,22,5,0,267.68439931393,0,0,0.86046262596,0,0,0,109.3, 3, 4.3,0,0,1024,1024,1024,1024,0,0,0,0,104.5,0,0,83,4.197,4.194,0,0,0,0,0,86,267.68439931393,0,41,Motors_Started,
215100,2023-04-01 05:26:33,35.8244881699449,14.4415502210733,0,,,267.68439931393,0.328084,0,0.85053480412,0.131716539648,22,5,0,267.68439931393,0,0,0.86046262596,0,0,0,109.3, 3, 4.3,0,0,1024,1024,1024,1024,0,0,0,0,104.5,0,0,83,4.197,4.194,0,0,0,0,0,86,267.68439931393,0,41,Motors_Started,
215200,2023-04-01 05:26:33,35.8244882458512,14.4415501490191,0,,,267.68439931393,0.328084,0,0.83245737572,0.166664047328,22,5,8.397,267.68439931393,0,0,0.86046262596,0,0,0,109.3, 3, 4.3,0,0,1024,1024,1024,1024,0,0,0,0,104.5,0,0,83,4.197,4.194,0,0,0,0,0.588,86,267.68439931393,0,41,Motors_Started,
215300,2023-04-01 05:26:33,35.8244882569975,14.441550134065,0,,,267.68439931393,0.328084,0,0.8286089504,0.172672905788,22,5,8.397,267.68439931393,0,0,0.86046262596,0,0,0,109.3, 3, 4.2,0,0,1024,1024,1024,1024,0,0,0,0,104.5,0,0,83,4.197,4.194,0,0,0,0,0.588,86,267.68439931393,0,41,Motors_Started,
215400,2023-04-01 05:26:33,35.8244882637287,14.4415501236952,0,,,267.68439931393,0.328084,0,0.82590881908,0.176602367856,23,5,8.397,267.68439931393,0,0,0.86046262596,0,0,0,109.3, 3, 4.2,0,0,1024,1024,1024,1024,0,0,0,0,104.5,0,0,83,4.197,4.194,0,0,0,0,0.588,86,267.68439931393,0,41,Motors_Started,
215500,2023-04-01 05:26:33,35.8244882998703,14.4415500834063,0,,,267.68439931393,0.328084,0,0.81606629908,0.194376974724,23,5,8.397,267.68439931393,0,0,0.86046262596,0,0,0,109.3, 3, 4.3,0,0,1024,1024,1024,1024,0,0,0,0,104.5,0,0,83,4.197,4.194,0,0,0,0,0.588,86,267.68439931393,0,41,Motors_Started,
215600,2023-04-01 05:26:33,35.8244883400978,14.4415500120578,0,,,267.68439931393,0.328084,0,0.79771656096,0.220084980796,23,5,8.397,267.68439931393,0,0,0.86046262596,0,0,0,109.3, 3, 4.3,0,0,1024,1024,1024,1024,0,0,0,0,104.5,0,0,83,4.197,4.194,0,0,0,0,0.588,86,267.68439931393,0,41,Motors_Started,
215700,2023-04-01 05:26:33,35.8244883484285,14.4415499978073,0,,,267.68439931393,0.328084,0,0.79412076032,0.22528215944,23,5,8.397,267.68439931393,0,0,0.86046262596,0,0,0,109.3, 3, 4.2,0,0,1024,1024,1024,1024,0,0,0,0,104.5,0,0,83,4.197,4.194,0,0,0,0,0.588,86,267.68439931393,0,41,Motors_Started,
215800,2023-04-01 05:26:34,35.8244883533733,14.4415499857593,0,,,267.68439931393,0.328084,0,0.79095146888,0.22927658214,23,5,8.397,267.68439931393,0,0,0.86046262596,0,0,0,109.4, 3, 4.3,0,0,1024,1024,1024,1024,0,0,0,0,104.5,0,0,83,4.197,4.194,0,0,0,0,0.588,86,267.68439931393,0,11,AutoTakeoff,
215900,2023-04-01 05:26:34,35.8244883855444,14.441549941203,0,,,267.68439931393,0.328084,0,0.78031170476,0.246926189004,23,5,8.397,267.68439931393,0,0,0.86046262596,0,0,0,109.1, 3, 4.3,0,0,1024,1024,1024,1024,0,0,0,0,104.5,0,0,83,4.197,4.194,0,0,0,0,0.588,86,267.68439931393,0,11,AutoTakeoff,
216000,2023-04-01 05:26:34,35.8244884249609,14.4415498919063,0,,,267.68439931393,0.328084,0,0.76915356792,0.267407488872,23,5,8.397,267.68439931393,0,0,0.86046262596,0,0,0,109.1, 3, 4.2,0,0,1024,1024,1024,1024,0,0,0,0,104.5,0,0,83,4.197,4.194,0,0,0,0,0.588,86,267.68439931393,0,11,AutoTakeoff,
216100,2023-04-01 05:26:34,35.8244883960597,14.4415499177831,0,,,267.68439931393,0.328084,0,0.7743274526,0.2804380011,23,5,8.397,267.68439931393,0,0,0.86046262596,0,0,0,109, 3, 4.2,0,0,1024,1024,1024,1024,0,0,0,0,104.5,0,0,83,4.197,4.194,0,0,0,0,0.588,86,267.68439931393,0,11,AutoTakeoff,
216200,2023-04-01 05:26:34,35.8244883877831,14.4415498954371,0,,,267.68439931393,0.328084,0,0.76723099568,0.287705389784,23,5,8.397,267.68439931393,0,0,0.86046262596,0,0,0,108.5, 2.9, 4.2,0,0,1024,1024,1024,1024,0,0,0,0,104.5,0,0,83,4.197,4.194,0,0,0,0,0.588,86,267.68439931393,0,11,AutoTakeoff,
216300,2023-04-01 05:26:34,35.8244883353309,14.4415498146959,0,,,267.68439931393,0.328084,0,0.7400098662,0.318311689976,23,5,8.373,267.68439931393,0,0,0.86046262596,0,0,0,107.2, 0.4, 3.8,0,0,1024,1024,1024,1024,0,0,0,0,104.4,0,0,83,4.186,4.182,0,0,0,0,1.063,86,267.68439931393,0,11,AutoTakeoff,
216400,2023-04-01 05:26:34,35.8244882344847,14.4415497099373,0,,,267.68439931393,0.328084,0.223694,0.70324149232,0.36641733456,23,5,8.373,267.68439931393,0,0.223694,0.86046262596,-0.223694,0,0,106.4, -2, 1.4,0,0,1024,1024,1024,1024,0,0,0,0,104.3,0,0,83,4.186,4.182,0,0,0,0,1.063,86,267.68439931393,0,11,AutoTakeoff,
216500,2023-04-01 05:26:34,35.8244881677954,14.4415496474469,0,,,267.68439931393,0.328084,0.223694,0.68169621604,0.39697507832,23,5,8.373,267.68439931393,0,0.223694,0.86046262596,-0.223694,0,-0.447388,106.3, -1.6, -0.2,0,0,1024,1024,1024,1024,0,0,0,0,104.1,0,0,83,4.186,4.182,0,0,0,0,1.063,86,267.68439931393,0,11,AutoTakeoff,
216600,2023-04-01 05:26:34,35.8244880860288,14.4415496098882,0,,,267.68439931393,0.328084,0.223694,0.6677821736,0.42880906884,23,5,8.373,267.68439931393,0,0.223694,0.86046262596,-0.223694,0,-0.894776,106.3, -0.2, -1.1,0,0,1024,1024,1024,1024,0,0,0,0,103.9,0,0,83,4.186,4.182,0,0,0,0,1.063,86,267.68439931393,0,11,AutoTakeoff,
216700,2023-04-01 05:26:35,35.8244880100244,14.44154956349,0,,,267.68439931393,0.656168,0.223694,0.65257219936,0.45975067088,23,5,8.373,267.68439931393,0,0.223694,0.86046262596,-0.223694,0,-1.11847,106.4, -0.1, -1.3,0,0,1024,1024,1024,1024,0,0,0,0,103.8,0,0,83,4.186,4.182,0,0,0,0,1.063,86,267.68439931393,0,11,AutoTakeoff,
216800,2023-04-01 05:26:35,35.824487955555,14.4415495299303,0.328084,,,268.01248331393,0.656168,0,0.64227692344,0.48196523852,23,5,8.373,268.01248331393,0.328084,0.223694,0.86046262596,0,0,-1.342164,106.3, 0, -0.9,0,0,1024,1024,1024,1024,0,0,0,0,103.7,0,0,83,4.186,4.182,0,0,0,0,1.063,86,268.01248331393,0.328084,11,AutoTakeoff,
216900,2023-04-01 05:26:35,35.8244877667019,14.4415495359896,0.328084,,,268.01248331393,0.984252,0,0.64751642492,0.55089240608,23,5,8.373,268.01248331393,0.328084,0.223694,0.86046262596,0,0,-1.565858,106.2, 0.2, -0.9,0,0,1024,1024,1024,1024,0,0,0,0,103.6,0,0,83,4.186,4.182,0,0,0,0,1.063,86,268.01248331393,0.328084,11,AutoTakeoff,
217000,2023-04-01 05:26:35,35.8244876946571,14.4415495745002,0.656168,,,268.34056731393,1.312336,0,0.66203086108,0.57954070096,23,5,8.373,268.34056731393,0.656168,0.223694,0.86046262596,0,0,-1.789552,106.3, 0.5, -0.6,0,0,1024,1024,1024,1024,0,0,0,0,103.5,0,0,83,4.186,4.182,0,0,0,0,1.063,86,268.34056731393,0.656168,11,AutoTakeoff,
217100,2023-04-01 05:26:35,35.8244876793025,14.4415495984797,0.984252,,,268.66865131393,1.312336,0,0.66985566448,0.58857941516,23,5,8.373,268.66865131393,0.984252,0.223694,0.86046262596,0,0,-2.013246,106.4, 0.8, 0.1,0,0,1024,1024,1024,1024,0,0,0,0,103.4,0,0,83,4.186,4.182,0,0,0,0,1.063,86,268.66865131393,0.984252,11,AutoTakeoff,
217200,2023-04-01 05:26:35,35.8244876768089,14.4415496307502,1.312336,,,268.99673531393,1.64042,0,0.67943243644,0.59816931048,23,5,8.373,268.99673531393,1.312336,0.223694,0.86046262596,0,0,-2.013246,106.3, 1.2, 0.6,0,0,1024,1024,1024,1024,0,0,0,0,103.3,0,0,83,4.186,4.182,0,0,0,0,1.063,86,268.99673531393,1.312336,11,AutoTakeoff,
217300,2023-04-01 05:26:35,35.8244875294824,14.4415498439383,1.64042,,,269.32481931393,1.968504,0,0.75098099516,0.68103348636,23,5,8.256,269.32481931393,1.64042,0.223694,0.86046262596,0,0,-2.23694,106.4, 1.5, 0.9,0,0,1024,1024,1024,1024,0,0,0,0,103.2,0,0,83,4.127,4.111,0,0,0,0,3.606,86,269.32481931393,1.64042,11,AutoTakeoff,
217400,2023-04-01 05:26:35,35.8244874510952,14.4415499775856,1.968504,,,269.65290331393,2.296588,0,0.79577430368,0.72982941968,24,5,8.256,269.65290331393,1.968504,0.223694,0.86046262596,0,0,-2.23694,106.4, 1.5, 0.4,0,0,1024,1024,1024,1024,0,0,0,0,103.2,0,0,83,4.127,4.111,0,0,0,0,3.606,86,269.65290331393,1.968504,11,AutoTakeoff,
217500,2023-04-01 05:26:35,35.8244874414919,14.4415500865725,2.296588,,,269.98098731393,2.624672,0,0.8279691866,0.76226052308,24,5,8.256,269.98098731393,2.296588,0.223694,0.86046262596,0,0,-2.23694,106.5, 1.3, 0.4,0,0,1024,1024,1024,1024,0,0,0,0,103.1,0,0,83,4.127,4.111,0,0,0,0,3.606,86,269.98098731393,2.296588,11,AutoTakeoff,
217600,2023-04-01 05:26:35,35.8244874375685,14.441550186192,2.624672,,,270.30907131393,2.952756,0,0.85702758648,0.7917651172,24,5,8.256,270.30907131393,2.624672,0.223694,0.86046262596,0,0,-2.013246,106.4, 1.1, 0.1,0,0,1024,1024,1024,1024,0,0,0,0,103.1,0,0,83,4.127,4.111,0,0,0,0,3.606,86,270.30907131393,2.624672,6,P-GPS,
217700,2023-04-01 05:26:36,35.8244873865368,14.4415502294228,2.952756,,,270.63715531393,3.28084,0,0.8737040962,0.8143537006,24,5,8.256,270.63715531393,2.952756,0.223694,0.8737040962,0,0,-1.565858,106.5, 1.2, 0,0,0,1024,1024,1024,1024,0,0,0,0,103,0,0,83,4.127,4.111,0,0,0,0,3.606,86,270.63715531393,2.952756,6,P-GPS,
217800,2023-04-01 05:26:36,35.8244873514532,14.4415502927877,3.28084,,,270.96523931393,3.608924,0,0.89497050108,0.83705055172,24,5,8.256,270.96523931393,3.28084,0.223694,0.89497050108,0,0,-1.11847,106.5, 1, -0.3,0,0,1024,1024,1024,1024,0,0,0,0,103,0,0,83,4.127,4.111,0,0,0,0,3.606,86,270.96523931393,3.28084,6,P-GPS,
217900,2023-04-01 05:26:36,35.8244872243881,14.4415503400632,3.28084,,,270.96523931393,3.608924,0,0.92077758852,0.88547575012,24,5,8.256,270.96523931393,3.28084,0.223694,0.92077758852,0,0,-0.447388,106.5, 0.9, -0.8,0,0,1024,1024,1024,1024,0,0,0,0,103,0,0,83,4.127,4.111,0,0,0,0,3.606,86,270.96523931393,3.28084,6,P-GPS,
218000,2023-04-01 05:26:36,35.8244870878765,14.4415503928507,3.28084,,,270.96523931393,3.608924,0,0.95103021416,0.93767063368,24,5,8.256,270.96523931393,3.28084,0.223694,0.95103021416,0,0,-0.223694,106.4, 0.8, -0.8,0,0,1024,1024,1024,1024,0,0,0,0,102.9,0,0,83,4.127,4.111,0,0,0,0,3.606,86,270.96523931393,3.28084,6,P-GPS,
218100,2023-04-01 05:26:36,35.8244870439366,14.4415504273432,3.608924,,,271.29332331393,3.937008,0,0.96603349548,0.9566765398,24,5,8.256,271.29332331393,3.608924,0.223694,0.96603349548,0,0,0,106.4, 0.4, -0.4,0,0,1024,1024,1024,1024,0,0,0,0,102.9,0,0,83,4.127,4.111,0,0,0,0,3.606,86,271.29332331393,3.608924,6,P-GPS,
218200,2023-04-01 05:26:36,35.8244869491624,14.4415504507794,3.608924,,,271.29332331393,3.937008,0,0.98483927036,0.99194228896,24,5,8.256,271.29332331393,3.608924,0.223694,0.98483927036,0,0,0,106.4, 0.7, -0.6,0,0,1024,1024,1024,1024,0,0,0,0,102.8,0,0,83,4.127,4.111,0,0,0,0,3.606,86,271.29332331393,3.608924,6,P-GPS,
218300,2023-04-01 05:26:36,35.8244869187927,14.4415505401003,3.608924,,,271.29332331393,3.937008,0,1.01348756524,1.02059386468,24,5,8.274,271.29332331393,3.608924,0.223694,1.01348756524,0,0,0,106.5, 1.1, -1,0,0,1024,1024,1024,1024,0,0,0,0,102.8,0,0,83,4.144,4.131,0,0,0,0,4.414,86.18,271.29332331393,3.608924,6,P-GPS,
218400,2023-04-01 05:26:36,35.8244868919588,14.4415506405375,3.608924,,,271.29332331393,3.937008,0,1.04471131952,1.05187667408,23,5,8.274,271.29332331393,3.608924,0.223694,1.04471131952,0,0,0,107, 1.2, -1.4,0,0,1024,1024,1024,1024,0,0,0,0,102.8,0,0,83,4.144,4.131,0,0,0,0,4.414,86.18,271.29332331393,3.608924,6,P-GPS,
218500,2023-04-01 05:26:36,35.8244868829417,14.4415507169478,3.608924,,,271.29332331393,3.937008,0,1.0669455722,1.07471788216,23,5,8.274,271.29332331393,3.608924,0.223694,1.0669455722,0,0,0,107.3, 1.6, -1.2,0,0,1024,1024,1024,1024,0,0,0,0,102.8,0,0,83,4.144,4.131,0,0,0,0,4.414,86.18,271.29332331393,3.608924,6,P-GPS,
218600,2023-04-01 05:26:36,35.8244869552784,14.4415508721452,3.608924,,,271.29332331393,3.937008,0,1.10083993024,1.12767720144,23,5,8.274,271.29332331393,3.608924,0.223694,1.10083993024,0,0,0,107.5, 1.8, -0.5,0,0,1024,1024,1100,1024,0,0,12,0,102.8,0,0,83,4.144,4.131,0,0,0,0,4.414,86.18,271.29332331393,3.608924,6,P-GPS,
218700,2023-04-01 05:26:37,35.8244869792597,14.4415509626944,3.608924,,,271.29332331393,3.937008,0,1.1233760202,1.1558563362,23,5,8.274,271.29332331393,3.608924,0.223694,1.1233760202,0,0,0,107.6, 1.8, 0,0,0,1024,1024,1163,1024,0,0,21,0,102.8,0,0,83,4.144,4.131,0,0,0,0,4.414,86.18,271.29332331393,3.608924,6,P-GPS,
218800,2023-04-01 05:26:37,35.8244870128333,14.4415510451619,3.608924,,,271.29332331393,3.937008,0,1.1428314014,1.183152925,24,5,8.274,271.29332331393,3.608924,0.223694,1.1428314014,0,0,0,107.5, 1.3, 0.3,0,0,1024,1024,1167,1024,0,0,22,0,102.8,0,0,83,4.144,4.131,0,0,0,0,4.414,86.18,271.29332331393,3.608924,6,P-GPS,
218900,2023-04-01 05:26:37,35.8244870411902,14.4415510729189,3.608924,,,271.29332331393,3.937008,0,1.147637832,1.19636158684,24,5,8.274,271.29332331393,3.608924,0.223694,1.147637832,0,0,-0.223694,107.4, 1.1, 0.3,0,0,1024,1024,1167,1024,0,0,22,0,102.8,0,0,83,4.144,4.131,0,0,0,0,4.414,86.18,271.29332331393,3.608924,6,P-GPS,
219000,2023-04-01 05:26:37,35.8244870567203,14.4415511083755,3.608924,,,271.29332331393,3.937008,0,1.15607615248,1.2082841594,24,5,8.274,271.29332331393,3.608924,0.223694,1.15607615248,0,0,-0.223694,107.4, 1.1, 0.6,0,0,1024,1024,1166,1024,0,0,22,0,102.8,0,0,83,4.144,4.131,0,0,0,0,4.414,86.18,271.29332331393,3.608924,6,P-GPS,
219100,2023-04-01 05:26:37,35.8244870504504,14.4415511379555,3.608924,,,271.29332331393,3.937008,0,1.16511486668,1.21732943528,24,5,8.274,271.29332331393,3.608924,0.223694,1.16511486668,0,0,-0.447388,107.3, 1, 0.5,0,0,1024,1024,1166,1024,0,0,22,0,102.8,0,0,83,4.144,4.131,0,0,0,0,4.414,86.18,271.29332331393,3.608924,6,P-GPS,
219200,2023-04-01 05:26:37,35.824487035176,14.4415511655823,3.937008,,,271.62140731393,4.265092,0,1.17453087748,1.22722116788,24,5,8.274,271.62140731393,3.937008,0.223694,1.17453087748,0,0,-0.447388,107.4, 1, 0.2,0,0,1024,1024,1163,1024,0,0,21,0,102.8,0,0,83,4.144,4.131,0,0,0,0,4.414,86.18,271.62140731393,3.937008,6,P-GPS,
219300,2023-04-01 05:26:37,35.824487061836,14.4415511665898,3.937008,,,271.62140731393,4.265092,0,1.17208993252,1.23695213932,24,5,8.251,271.62140731393,3.937008,0.223694,1.17453087748,0,0,-0.447388,107.4, 0.8, 0,0,0,1024,1024,1163,1024,0,0,21,0,102.8,0,0,83,4.123,4.108,0,0,0,0,4.156,86.18,271.62140731393,3.937008,6,P-GPS,
219400,2023-04-01 05:26:37,35.8244870969351,14.4415511625598,3.937008,,,271.62140731393,4.265092,0,1.16746722896,1.24981303212,24,5,8.251,271.62140731393,3.937008,0.223694,1.17453087748,0,0,-0.447388,107.4, 0.8, -0.1,0,0,1024,1024,1165,1024,0,0,21,0,102.8,0,0,83,4.123,4.108,0,0,0,0,4.156,86.18,271.62140731393,3.937008,6,P-GPS,
219500,2023-04-01 05:26:37,35.8244870675861,14.4415511783862,3.937008,,,271.62140731393,4.265092,0,1.174868804,1.2614993842,24,5,8.251,271.62140731393,3.937008,0.223694,1.174868804,0,0,-0.447388,107.5, 0.9, 0,0,0,1024,1024,1166,1024,0,0,22,0,102.8,0,0,83,4.123,4.108,0,0,0,0,4.156,86.18,271.62140731393,3.937008,6,P-GPS,
219600,2023-04-01 05:26:37,35.8244870749983,14.4415511848734,3.937008,,,271.62140731393,4.593176,0,1.17597772792,1.26481631344,23,5,8.251,271.62140731393,3.937008,0.223694,1.17597772792,0,0,-0.447388,107.5, 0.7, 0,0,0,1024,1024,1174,1024,0,0,23,0,102.8,0,0,83,4.123,4.108,0,0,0,0,4.156,86.18,271.62140731393,3.937008,6,P-GPS,
219700,2023-04-01 05:26:38,35.8244870761102,14.4415512185178,4.265092,,,271.94949131393,4.593176,0,1.18545279384,1.27477694368,23,5,8.251,271.94949131393,4.265092,0.223694,1.18545279384,0,0,-0.447388,107.5, 0.6, 0.1,0,0,1024,1024,1185,1024,0,0,24,0,102.8,0,0,83,4.123,4.108,0,0,0,0,4.156,86.18,271.94949131393,4.265092,6,P-GPS,"Home Point updated. RTH altitude adjusted to 15 m (Code: 120852)"
219800,2023-04-01 05:26:38,35.8244870790377,14.4415512652491,4.265092,,,271.94949131393,4.593176,0,1.19848757116,1.28864177352,23,5,8.251,271.94949131393,4.265092,0.223694,1.19848757116,0,0,-0.447388,107.5, 0.7, 0.2,0,0,1024,1024,1187,1024,0,0,25,0,102.8,0,0,83,4.123,4.108,0,0,0,0,4.156,86.18,271.94949131393,4.265092,6,P-GPS,
219900,2023-04-01 05:26:38,35.82448715545,14.4415513665583,4.265092,,,271.94949131393,4.593176,0,1.22049544588,1.32957353336,23,5,8.251,271.94949131393,4.265092,0.223694,1.22049544588,0,0,-0.671082,107.5, 1.4, 0.6,0,0,1024,1024,1187,1024,0,0,25,0,102.8,0,0,83,4.123,4.108,0,0,0,0,4.156,86.18,271.94949131393,4.265092,6,P-GPS,
220000,2023-04-01 05:26:38,35.8244872113927,14.4415514033066,4.593176,,,272.27757531393,4.92126,0,1.22641408124,1.35270017452,23,5,8.251,272.27757531393,4.593176,0.223694,1.22641408124,0,0,-0.671082,107.5, 1.4, 0.5,0,0,1024,1024,1186,1024,0,0,25,0,102.8,0,0,83,4.123,4.108,0,0,0,0,4.156,86.18,272.27757531393,4.593176,6,P-GPS,
220100,2023-04-01 05:26:38,35.8244872731979,14.4415513851638,4.593176,,,272.27757531393,4.92126,0,1.21640095756,1.37587930912,23,5,8.251,272.27757531393,4.593176,0.223694,1.22641408124,0,0,-0.671082,107.5, 1.6, 0.7,0,0,1024,1024,1187,1024,0,0,25,0,102.8,0,0,83,4.123,4.108,0,0,0,0,4.156,86.18,272.27757531393,4.593176,6,P-GPS,
220200,2023-04-01 05:26:38,35.8244873301556,14.4415513596194,4.593176,,,272.27757531393,5.249344,0,1.20493442176,1.39799217072,23,5,8.251,272.27757531393,4.593176,0.223694,1.22641408124,0,0,-0.671082,107.5, 1.7, 0.3,0,0,1024,1024,1197,1024,0,0,26,0,102.8,0,0,83,4.123,4.108,0,0,0,0,4.156,86.18,272.27757531393,4.593176,6,P-GPS,
220300,2023-04-01 05:26:38,35.8244874352732,14.4415513207391,4.92126,,,272.60565931393,5.249344,0,1.18697182276,1.43803154208,23,5,8.236,272.60565931393,4.92126,0.223694,1.22641408124,0,0,-0.671082,107.5, 2.1, 0.2,0,0,1024,1024,1201,1024,0,0,27,0,102.8,0,0,83,4.124,4.11,0,0,0,0,4.398,86.18,272.60565931393,4.92126,6,P-GPS,
220400,2023-04-01 05:26:38,35.8244874713282,14.441551360775,4.92126,,,272.60565931393,5.249344,0,1.19667982832,1.45573167388,23,5,8.236,272.60565931393,4.92126,0.223694,1.22641408124,0,0,-0.671082,107.6, 2, 0.4,0,0,1024,1024,1201,1024,0,0,27,0,102.8,0,0,83,4.124,4.11,0,0,0,0,4.398,86.18,272.60565931393,4.92126,6,P-GPS,
220500,2023-04-01 05:26:38,35.8244874530542,14.4415513618395,5.249344,,,272.93374331393,5.577428,0,1.19797904096,1.46240490244,23,5,8.236,272.93374331393,5.249344,0.223694,1.22641408124,0,0,-0.894776,107.6, 1.8, 0.3,0,0,1024,1024,1200,1024,0,0,27,0,102.8,0,0,83,4.124,4.11,0,0,0,0,4.398,86.18,272.93374331393,5.249344,6,P-GPS,
220600,2023-04-01 05:26:38,35.8244874199036,14.4415513484664,5.249344,,,272.93374331393,5.577428,0,1.1959646052,1.4751312808,23,5,8.236,272.93374331393,5.249344,0.223694,1.22641408124,0,0,-0.894776,107.5, 1.9, 0,0,0,1024,1024,1200,1024,0,0,27,0,102.8,0,0,83,4.124,4.11,0,0,0,0,4.398,86.18,272.93374331393,5.249344,6,P-GPS,
220700,2023-04-01 05:26:39,35.8244872537502,14.4415514161232,5.249344,,,272.93374331393,5.577428,0,1.2268209054,1.53897314636,23,5,8.236,272.93374331393,5.249344,0.223694,1.2268209054,0,0,-0.894776,107.7, 1.7, -0.6,0,0,1024,1024,1201,1024,0,0,27,0,102.8,0,0,83,4.124,4.11,0,0,0,0,4.398,86.18,272.93374331393,5.249344,6,P-GPS,
220800,2023-04-01 05:26:39,35.8244872057726,14.4415514316739,5.577428,,,273.26182731393,5.905512,0,1.23504925212,1.5570702598,24,5,8.236,273.26182731393,5.577428,0.223694,1.23504925212,0,0,-0.894776,107.5, 2.1, -0.8,0,0,1024,1024,1202,1024,0,0,27,0,102.8,0,0,83,4.124,4.11,0,0,0,0,4.398,86.18,273.26182731393,5.577428,6,P-GPS,
220900,2023-04-01 05:26:39,35.8244872176557,14.4415514127998,5.577428,,,273.26182731393,5.905512,0,1.22865489496,1.56414047,24,5,8.236,273.26182731393,5.577428,0.223694,1.23504925212,0,0,-0.894776,107.4, 2.1, -0.9,0,0,1024,1024,1202,1024,0,0,27,0,102.8,0,0,83,4.124,4.11,0,0,0,0,4.398,86.18,273.26182731393,5.577428,6,P-GPS,
221000,2023-04-01 05:26:39,35.8244872496225,14.44155138501,5.905512,,,273.58991131393,6.233596,0,1.21813324108,1.57840884316,24,5,8.236,273.58991131393,5.905512,0.223694,1.23504925212,0,0,-0.894776,107.4, 1.7, -1.2,0,0,1024,1024,1208,1024,0,0,28,0,102.8,0,0,83,4.124,4.11,0,0,0,0,4.398,86.18,273.58991131393,5.905512,6,P-GPS,
221100,2023-04-01 05:26:39,35.8244872393315,14.4415514463344,5.905512,,,273.58991131393,6.233596,0,1.23665686372,1.59693574664,24,5,8.236,273.58991131393,5.905512,0.223694,1.23665686372,0,0,-0.894776,107.5, 2, -0.6,0,0,1024,1024,1223,1024,0,0,30,0,102.8,0,0,83,4.124,4.11,0,0,0,0,4.398,86.18,273.58991131393,5.905512,6,P-GPS,
221200,2023-04-01 05:26:39,35.824487230082,14.4415516416938,6.233596,,,273.91799531393,6.56168,0,1.29390424088,1.65482616844,24,5,8.236,273.91799531393,6.233596,0.223694,1.29390424088,0,0,-0.894776,107.5, 2.3, -0.3,0,0,1024,1024,1271,1024,0,0,37,0,102.8,0,0,83,4.124,4.11,0,0,0,0,4.398,86.18,273.91799531393,6.233596,6,P-GPS,
221300,2023-04-01 05:26:39,35.8244872613847,14.4415516835163,6.233596,,,273.91799531393,6.56168,0,1.3037730076,1.67166343932,24,5,8.236,273.91799531393,6.233596,0.223694,1.3037730076,0,0,-0.894776,107.5, 2.3, -0.1,0,0,1024,1024,1324,1024,0,0,45,0,102.8,0,0,83,4.124,4.11,0,0,0,0,4.398,86.18,273.91799531393,6.233596,6,P-GPS,
221400,2023-04-01 05:26:39,35.8244873062968,14.4415517189681,6.56168,,,274.24607931393,6.889764,0,1.31103350652,1.69111882052,24,5,8.231,274.24607931393,6.56168,0.223694,1.31103350652,0,0,-1.11847,107.4, 2.6, -0.3,0,0,1024,1024,1336,1024,0,0,47,0,102.8,0,0,83,4.123,4.107,0,0,0,0,4.364,86.18,274.24607931393,6.56168,6,P-GPS,
221500,2023-04-01 05:26:39,35.8244873737181,14.4415517325955,6.889764,,,274.57416331393,6.889764,0,1.31083009444,1.716043362,24,5,8.231,274.57416331393,6.889764,0.223694,1.31103350652,0,0,-1.565858,107.5, 2.5, -0.2,0,0,1024,1024,1340,1024,0,0,48,0,102.8,0,0,83,4.123,4.107,0,0,0,0,4.364,86.18,274.57416331393,6.889764,6,P-GPS,
221600,2023-04-01 05:26:39,35.8244874936876,14.441551792335,7.217848,,,274.90224731393,7.217848,0,1.32206040976,1.76324808792,23,5,8.231,274.90224731393,7.217848,0.223694,1.32206040976,0,0,-1.789552,107.5, 2.7, 0.8,0,0,1024,1024,1340,1024,0,0,48,0,102.8,0,0,83,4.123,4.107,0,0,0,0,4.364,86.18,274.90224731393,7.217848,6,P-GPS,
221700,2023-04-01 05:26:40,35.824487574999,14.4415519803752,7.545932,,,275.23033131393,7.545932,0,1.37399282612,1.82629270936,23,5,8.231,275.23033131393,7.545932,0.223694,1.37399282612,0,0,-2.013246,107.4, 2.7, 1.9,0,0,1024,1024,1339,1024,0,0,48,0,102.8,0,0,83,4.123,4.107,0,0,0,0,4.364,86.18,275.23033131393,7.545932,6,P-GPS,
221800,2023-04-01 05:26:40,35.8244876548819,14.4415521814718,7.874016,,,275.55841531393,7.874016,0,1.43071526888,1.8925361498,23,5,8.231,275.55841531393,7.874016,0.223694,1.43071526888,0,0,-2.23694,107.3, 2.5, 2.3,0,0,1024,1024,1339,1024,0,0,48,0,102.8,0,0,83,4.123,4.107,0,0,0,0,4.364,86.18,275.55841531393,7.874016,6,P-GPS,
221900,2023-04-01 05:26:40,35.8244876478283,14.4415522226873,8.2021,,,275.88649931393,8.2021,0,1.44306763148,1.90499678012,23,5,8.231,275.88649931393,8.2021,0.223694,1.44306763148,0,0,-2.23694,107.4, 2.4, 2.2,0,0,1024,1024,1338,1024,0,0,48,0,102.8,0,0,83,4.123,4.107,0,0,0,0,4.364,86.18,275.88649931393,8.2021,6,P-GPS,
222000,2023-04-01 05:26:40,35.824487469999,14.4415524187686,8.530184,,,276.21458331393,8.530184,0,1.50706041568,1.9920276228,23,5,8.231,276.21458331393,8.530184,0.223694,1.50706041568,0,0,-2.23694,107.4, 2.2, 1.5,0,0,1024,1024,1338,1024,0,0,48,0,102.8,0,0,83,4.123,4.107,0,0,0,0,4.364,86.18,276.21458331393,8.530184,6,P-GPS,
222100,2023-04-01 05:26:40,35.8244875098491,14.4415524000638,8.858268,,,276.54266731393,8.858268,0,1.49994099288,2.00758536608,23,5,8.231,276.54266731393,8.858268,0.223694,1.50706041568,0,0,-2.23694,107.4, 2.3, 1.5,0,0,1024,1024,1336,1024,0,0,47,0,102.8,0,0,83,4.123,4.107,0,0,0,0,4.364,86.18,276.54266731393,8.858268,6,P-GPS,
222200,2023-04-01 05:26:40,35.8244875574766,14.4415523784984,9.186352,,,276.87075131393,9.186352,0,1.4918307564,2.02609586536,24,5,8.231,276.87075131393,9.186352,0.223694,1.50706041568,0,0,-2.23694,107.4, 2.3, 1.1,0,0,1024,1024,1338,1024,0,0,48,0,102.8,0,0,83,4.123,4.107,0,0,0,0,4.364,86.18,276.87075131393,9.186352,6,P-GPS,
222300,2023-04-01 05:26:40,35.8244875242803,14.4415523710274,9.514436,,,277.19883531393,9.514436,0,1.49084322356,2.03840557704,24,5,8.231,277.19883531393,9.514436,0.223694,1.50706041568,0,0,-2.23694,107.5, 2.8, 1.4,0,0,1024,1024,1336,1024,0,0,47,0,102.8,0,0,83,4.123,4.107,0,0,0,0,4.364,86.18,277.19883531393,9.514436,6,P-GPS,
222400,2023-04-01 05:26:40,35.8244874455894,14.4415522438454,9.84252,,,277.52691931393,9.84252,0,1.456774981,2.08573497488,24,5,8.207,277.52691931393,9.84252,0.223694,1.50706041568,0,0,-2.013246,107.5, 3.2, 1.1,0,0,1024,1024,1337,1024,0,0,47,0,102.8,0,0,83,4.117,4.101,0,0,0,0,4.628,86.36,277.52691931393,9.84252,6,P-GPS,
222500,2023-04-01 05:26:40,35.8244874334144,14.4415522706145,10.170604,,,277.85500331393,10.170604,0,1.46519361644,2.09481305916,24,5,8.207,277.85500331393,10.170604,0.223694,1.50706041568,0,0,-2.013246,107.3, 2.6, 1.1,0,0,1024,1024,1335,1024,0,0,47,0,102.8,0,0,83,4.117,4.101,0,0,0,0,4.628,86.36,277.85500331393,10.170604,6,P-GPS,
222600,2023-04-01 05:26:40,35.8244874237239,14.4415523041202,10.498688,,,278.18308731393,10.498688,0,1.47547904984,2.10533799388,24,5,8.207,278.18308731393,10.498688,0.223694,1.50706041568,0,0,-2.013246,107.4, 2.4, 1.2,0,0,1024,1024,1326,1024,0,0,46,0,102.8,0,0,83,4.117,4.101,0,0,0,0,4.628,86.36,278.18308731393,10.498688,6,P-GPS,
222700,2023-04-01 05:26:40,35.8244874022688,14.4415523229277,10.826772,,,278.51117131393,10.826772,0,1.48203088732,2.11494101256,24,5,8.207,278.51117131393,10.826772,0.223694,1.50706041568,0,0,-2.23694,107.3, 2.8, 0.8,0,0,1024,1024,1326,1024,0,0,46,0,102.8,0,0,83,4.117,4.101,0,0,0,0,4.628,86.36,278.51117131393,10.826772,6,P-GPS,
222800,2023-04-01 05:26:41,35.8244873702421,14.4415523394496,11.154856,,,278.83925531393,11.154856,0,1.48849086128,2.12760505496,24,5,8.207,278.83925531393,11.154856,0.223694,1.50706041568,0,0,-2.23694,107.5, 2.5, 1.3,0,0,1024,1024,1286,1024,0,0,40,0,102.8,0,0,83,4.117,4.101,0,0,0,0,4.628,86.36,278.83925531393,11.154856,6,P-GPS,
222900,2023-04-01 05:26:41,35.8244874683339,14.4415524807639,11.48294,,,279.16733931393,11.48294,0,1.52534781784,2.18263786512,24,5,8.207,279.16733931393,11.48294,0.223694,1.52534781784,0,0,-2.013246,107.7, 3, 0.7,0,0,1024,1024,1266,1024,0,0,37,0,102.8,0,0,83,4.117,4.101,0,0,0,0,4.628,86.36,279.16733931393,11.48294,6,P-GPS,
223000,2023-04-01 05:26:41,35.8244874698834,14.4415525767079,11.811024,,,279.49542331393,11.811024,0,1.55348102084,2.21102697364,24,5,8.207,279.49542331393,11.811024,0.223694,1.55348102084,0,0,-1.789552,107.6, 3.9, 0.3,0,0,1024,1024,1269,1024,0,0,37,0,102.8,0,0,83,4.117,4.101,0,0,0,0,4.628,86.36,279.49542331393,11.811024,6,P-GPS,
223100,2023-04-01 05:26:41,35.8244874028798,14.4415526582024,12.139108,,,279.82350731393,12.139108,0,1.58033797708,2.24536096424,24,5,8.207,279.82350731393,12.139108,0.223694,1.58033797708,0,0,-1.789552,107.5, 4.2, 0.1,0,0,1024,1024,1286,1024,0,0,40,0,102.8,0,0,83,4.117,4.101,0,0,0,0,4.628,86.36,279.82350731393,12.139108,6,P-GPS,
223200,2023-04-01 05:26:41,35.8244873346183,14.4415527619594,12.467192,,,280.15159131393,12.467192,0,1.61406501228,2.28488852456,24,5,8.207,280.15159131393,12.467192,0.223694,1.61406501228,0,0,-1.565858,107.5, 4.9, 0.6,0,0,1024,1024,1286,1024,0,0,40,0,102.8,0,0,83,4.117,4.101,0,0,0,0,4.628,86.36,280.15159131393,12.467192,6,P-GPS,
223300,2023-04-01 05:26:41,35.824487350676,14.4415527947955,12.795276,,,280.47967531393,12.795276,0.223694,1.6228839102,2.29623038844,24,5,8.207,280.47967531393,12.795276,0.223694,1.6228839102,0,0.223694,-1.565858,107.6, 5.5, 1,0,0,1024,1024,1286,1024,0,0,40,0,102.8,0,0,83,4.117,4.101,0,0,0,0,4.628,86.36,280.47967531393,12.795276,6,P-GPS,
223400,2023-04-01 05:26:41,35.8244873874202,14.4415529136573,13.12336,,,280.80775931393,12.795276,0.223694,1.6560203942,2.33386162324,24,5,8.209,280.80775931393,13.12336,0.223694,1.6560203942,0,0.223694,-1.565858,107.6, 6.2, 1.5,0,0,1024,1024,1285,1024,0,0,40,0,102.8,0,0,83,4.119,4.107,0,0,0,0,4.51,86.36,280.80775931393,13.12336,6,P-GPS,
223500,2023-04-01 05:26:41,35.8244873386121,14.4415530432001,13.451444,,,281.13584331393,13.12336,0.223694,1.69630254772,2.37611884244,24,5,8.209,281.13584331393,13.451444,0.223694,1.69630254772,0,0.223694,-1.565858,107.7, 6.5, 1.4,0,0,1024,1024,1280,1024,0,0,39,0,102.8,0,0,83,4.119,4.107,0,0,0,0,4.51,86.36,281.13584331393,13.451444,6,P-GPS,
223600,2023-04-01 05:26:41,35.8244872707239,14.4415531672473,13.779528,,,281.46392731393,13.451444,0,1.73604664348,2.42039377824,24,5,8.209,281.46392731393,13.779528,0.223694,1.73604664348,0,0,-1.565858,107.7, 6.7, 1.4,0,0,1024,1024,1280,1024,0,0,39,0,102.8,0,0,83,4.119,4.107,0,0,0,0,4.51,86.36,281.46392731393,13.779528,6,P-GPS,
223700,2023-04-01 05:26:42,35.8244872238898,14.4415533033663,14.107612,,,281.79201131393,13.779528,0,1.77837604116,2.46413393712,24,5,8.209,281.79201131393,14.107612,0.223694,1.77837604116,0,0,-1.565858,107.7, 7.2, 1.4,0,0,1024,1024,1268,1024,0,0,37,0,102.8,0,0,83,4.119,4.107,0,0,0,0,4.51,86.36,281.79201131393,14.107612,6,P-GPS,
223800,2023-04-01 05:26:42,35.8244872064386,14.4415533953752,14.435696,,,282.12009531393,14.107612,0,1.80624021528,2.49208997476,24,5,8.209,282.12009531393,14.435696,0.223694,1.80624021528,0,0,-1.565858,107.7, 6.8, 1.2,0,0,1024,1024,1140,1024,0,0,18,0,102.8,0,0,83,4.119,4.107,0,0,0,0,4.51,86.36,282.12009531393,14.435696,6,P-GPS,
223900,2023-04-01 05:26:42,35.8244871461829,14.4415535161011,14.76378,,,282.44817931393,14.107612,0,1.84492131888,2.53402567164,24,5,8.209,282.44817931393,14.76378,0.223694,1.84492131888,0,0,-1.342164,107.6, 6.8, 0.6,0,0,1024,1024,1024,1024,0,0,0,0,102.8,0,0,83,4.119,4.107,0,0,0,0,4.51,86.36,282.44817931393,14.76378,6,P-GPS,
224000,2023-04-01 05:26:42,35.8244870741723,14.4415536374634,15.091864,,,282.77626331393,14.435696,0,1.88465229128,2.57851386204,24,5,8.209,282.77626331393,15.091864,0.223694,1.88465229128,0,0,-0.894776,107.6, 7.4, 0.7,0,0,1024,1024,1024,1024,0,0,0,0,102.8,0,0,83,4.119,4.107,0,0,0,0,4.51,86.36,282.77626331393,15.091864,6,P-GPS,
224100,2023-04-01 05:26:42,35.8244871354714,14.4415538179068,15.091864,,,282.77626331393,14.435696,0,1.93371725348,2.63639116048,24,5,8.209,282.77626331393,15.091864,0.223694,1.93371725348,0,0,-0.447388,107.7, 6.2, 0.1,0,0,1024,1024,1024,1024,0,0,0,0,102.8,0,0,83,4.119,4.107,0,0,0,0,4.51,86.36,282.77626331393,15.091864,6,P-GPS,
224200,2023-04-01 05:26:42,35.8244871415166,14.4415538744228,15.419948,,,283.10434731393,14.76378,0,1.94990491804,2.65325467808,24,5,8.209,283.10434731393,15.419948,0.223694,1.94990491804,0,0,-0.223694,107.6, 5.5, -0.3,0,0,1024,1024,1024,1024,0,0,0,0,102.8,0,0,83,4.119,4.107,0,0,0,0,4.51,86.36,283.10434731393,15.419948,6,P-GPS,
224300,2023-04-01 05:26:42,35.8244871165741,14.4415539076271,15.419948,,,283.10434731393,14.76378,0,1.9610072806,2.66664378612,24,5,8.209,283.10434731393,15.419948,0.223694,1.9610072806,0,0,-0.223694,107.5, 5.3, 0,0,0,1024,1024,1024,1024,0,0,0,0,102.8,0,0,83,4.119,4.107,0,0,0,0,4.51,86.36,283.10434731393,15.419948,6,P-GPS,
224400,2023-04-01 05:26:42,35.8244870940015,14.4415539389593,15.419948,,,283.10434731393,14.76378,0,1.97145019432,2.67904208048,24,5,8.211,283.10434731393,15.419948,0.223694,1.97145019432,0,0,0,107.5, 5.3, 0.1,0,0,1024,1024,1024,1024,0,0,0,0,102.8,0,0,83,4.114,4.099,0,0,0,0,4.223,86.36,283.10434731393,15.419948,6,P-GPS,
224500,2023-04-01 05:26:42,35.8244870713677,14.4415539169168,15.419948,,,283.10434731393,14.76378,0,1.96634192644,2.6895670152,24,5,8.211,283.10434731393,15.419948,0.223694,1.97145019432,0,0,0,107.5, 5.3, 0.4,0,0,1024,1024,1024,1024,0,0,0,0,102.8,0,0,83,4.114,4.099,0,0,0,0,4.223,86.36,283.10434731393,15.419948,6,P-GPS,
224600,2023-04-01 05:26:42,35.8244870016097,14.4415537339194,15.419948,,,283.10434731393,14.76378,0,1.91737867028,2.74938657092,24,5,8.211,283.10434731393,15.419948,0.223694,1.97145019432,0,0,0,107.6, 5, 0.3,0,0,1024,1024,1024,1024,0,0,0,0,102.8,0,0,83,4.114,4.099,0,0,0,0,4.223,86.36,283.10434731393,15.419948,6,P-GPS,
224700,2023-04-01 05:26:43,35.8244869554681,14.4415537513539,15.419948,,,283.10434731393,14.76378,0,1.92555124272,2.76699155836,24,5,8.211,283.10434731393,15.419948,0.223694,1.97145019432,0,0,0,107.5, 4.9, 0.8,0,0,1024,1024,1024,1024,0,0,0,0,102.8,0,0,83,4.114,4.099,0,0,0,0,4.223,86.36,283.10434731393,15.419948,6,P-GPS,
224800,2023-04-01 05:26:43,35.8244869059251,14.441553783711,15.419948,,,283.10434731393,14.76378,0,1.93842197804,2.78744759576,24,5,8.211,283.10434731393,15.419948,0.223694,1.97145019432,0,0,0,107.4, 4.8, 0.5,0,0,1024,1024,1024,1024,0,0,0,0,102.8,0,0,83,4.114,4.099,0,0,0,0,4.223,86.36,283.10434731393,15.419948,6,P-GPS,
224900,2023-04-01 05:26:43,35.8244869236125,14.4415538077049,15.419948,,,283.10434731393,14.76378,0,1.94413063964,2.79703749108,24,5,8.211,283.10434731393,15.419948,0.223694,1.97145019432,0,0,0,107.5, 4.8, 1.4,0,0,1024,1024,1024,1024,0,0,0,0,102.8,0,0,83,4.114,4.099,0,0,0,0,4.223,86.36,283.10434731393,15.419948,6,P-GPS,
225000,2023-04-01 05:26:43,35.8244869161493,14.4415538216652,15.419948,,,283.10434731393,14.76378,0,1.94870741144,2.8019849978,23,5,8.211,283.10434731393,15.419948,0.223694,1.97145019432,0,0,0,107.4, 5.2, 1.5,0,0,1024,1024,1024,1024,0,0,0,0,102.8,0,0,83,4.114,4.099,0,0,0,0,4.223,86.36,283.10434731393,15.419948,6,P-GPS,
225100,2023-04-01 05:26:43,35.8244869411541,14.4415538557151,15.419948,,,283.10434731393,14.76378,0,1.956857018,2.81557423708,23,5,8.211,283.10434731393,15.419948,0.223694,1.97145019432,0,0,0,107.4, 5.8, 1.8,0,0,1024,1024,1024,1024,0,0,0,0,102.8,0,0,83,4.114,4.099,0,0,0,0,4.223,86.36,283.10434731393,15.419948,6,P-GPS,
225200,2023-04-01 05:26:43,35.8244869634507,14.4415539123022,15.748032,,,283.43243131393,14.76378,0,1.97179796336,2.8341864424,23,5,8.211,283.43243131393,15.748032,0.223694,1.97179796336,0,0,0,107.6, 6.3, 2.5,0,0,1024,1024,1024,1024,0,0,0,0,102.8,0,0,83,4.114,4.099,0,0,0,0,4.223,86.36,283.43243131393,15.748032,6,P-GPS,
225300,2023-04-01 05:26:43,35.824486998023,14.4415539263794,15.748032,,,283.43243131393,14.76378,0,1.97363523376,2.84747056356,23,5,8.211,283.43243131393,15.748032,0.223694,1.97363523376,0,0,0,107.7, 6.7, 2.1,0,0,1024,1024,1024,1024,0,0,0,0,102.8,0,0,83,4.114,4.099,0,0,0,0,4.223,86.36,283.43243131393,15.748032,6,P-GPS,
225400,2023-04-01 05:26:43,35.8244871400294,14.4415537914471,15.748032,,,283.43243131393,14.76378,0,1.92572840808,2.91287410896,23,5,8.211,283.43243131393,15.748032,0.223694,1.97363523376,0,0,0,107.7, 6.6, 1.7,0,0,1024,1024,1024,1024,0,0,0,0,102.8,0,0,83,4.118,4.104,0,0,0,0,3.978,86.36,283.43243131393,15.748032,6,P-GPS,
225500,2023-04-01 05:26:43,35.8244871118276,14.4415538409072,15.748032,,,283.43243131393,14.76378,0,1.9417815582,2.93076124864,23,5,8.211,283.43243131393,15.748032,0.223694,1.97363523376,0,0,0,107.7, 6.6, 1.6,0,0,1024,1024,1024,1024,0,0,0,0,102.8,0,0,83,4.118,4.104,0,0,0,0,3.978,86.36,283.43243131393,15.748032,6,P-GPS,
225600,2023-04-01 05:26:43,35.8244870716853,14.4415538858071,15.748032,,,283.43243131393,14.76378,0,1.95724415712,2.95053487132,23,5,8.211,283.43243131393,15.748032,0.223694,1.97363523376,0,0,0,107.7, 5.8, 1.5,0,0,1024,1024,1024,1024,0,0,0,0,102.8,0,0,83,4.118,4.104,0,0,0,0,3.978,86.36,283.43243131393,15.748032,6,P-GPS,
225700,2023-04-01 05:26:44,35.8244870668785,14.4415538741986,15.748032,,,283.43243131393,15.091864,0,1.95414376332,2.95438985832,23,5,8.211,283.43243131393,15.748032,0.223694,1.97363523376,0,0,0,107.5, 5.6, 0.8,0,0,1024,1024,1024,1024,0,0,0,0,102.8,0,0,83,4.118,4.104,0,0,0,0,3.978,86.36,283.43243131393,15.748032,6,P-GPS,
225800,2023-04-01 05:26:44,35.8244871121965,14.441553822877,15.748032,,,283.43243131393,15.091864,0,1.93649284412,2.9768373656,23,5,8.211,283.43243131393,15.748032,0.223694,1.97363523376,0,0,0,107.5, 5.6, 1.3,0,0,1024,1024,1024,1024,0,0,0,0,102.8,0,0,83,4.118,4.104,0,0,0,0,3.978,86.36,283.43243131393,15.748032,6,P-GPS,
225900,2023-04-01 05:26:44,35.8244871211598,14.4415538094604,15.748032,,,283.43243131393,15.091864,0,1.93206042928,2.98198172272,23,5,8.211,283.43243131393,15.748032,0.223694,1.97363523376,0,0,0,107.5, 5.3, 1.4,0,0,1024,1024,1024,1024,0,0,0,0,102.8,0,0,83,4.118,4.104,0,0,0,0,3.978,86.36,283.43243131393,15.748032,6,P-GPS,
226000,2023-04-01 05:26:44,35.824487124959,14.441553805878,15.748032,,,283.43243131393,15.091864,0,1.93079730588,2.98372384876,23,5,8.211,283.43243131393,15.748032,0.223694,1.97363523376,0,0,0,107.5, 5.4, 1.3,0,0,1024,1024,1024,1024,0,0,0,0,102.8,0,0,83,4.118,4.104,0,0,0,0,3.978,86.36,283.43243131393,15.748032,6,P-GPS,
226100,2023-04-01 05:26:44,35.8244871777096,14.4415537551467,15.748032,,,283.43243131393,15.091864,0,1.91304468064,3.00813001752,23,5,8.211,283.43243131393,15.748032,0.223694,1.97363523376,0,0,0,107.5, 5.8, 1.4,0,0,1024,1024,1024,1024,0,0,0,0,102.8,0,0,83,4.118,4.104,0,0,0,0,3.978,86.36,283.43243131393,15.748032,6,P-GPS,
226200,2023-04-01 05:26:44,35.8244872361679,14.4415537008541,15.748032,,,283.43243131393,15.091864,0,1.894110953,3.03482949344,24,5,8.211,283.43243131393,15.748032,0.223694,1.97363523376,0,0,0,107.6, 6, 2.1,0,0,1024,1024,1024,1024,0,0,0,0,102.8,0,0,83,4.118,4.104,0,0,0,0,3.978,86.36,283.43243131393,15.748032,6,P-GPS,
226300,2023-04-01 05:26:44,35.8244874901697,14.4415535778056,15.748032,,,283.43243131393,15.091864,0,1.847358983,3.13439642576,24,5,8.211,283.43243131393,15.748032,0.223694,1.97363523376,0,0,0,107.6, 5.8, 2.1,0,0,1024,1024,1024,1024,0,0,0,0,102.8,0,0,83,4.118,4.104,0,0,0,0,3.978,86.36,283.43243131393,15.748032,6,P-GPS,
226400,2023-04-01 05:26:44,35.8244875303903,14.4415535911664,15.748032,,,283.43243131393,15.091864,0,1.85002302508,3.14959327664,24,5,8.211,283.43243131393,15.748032,0.223694,1.97363523376,0,0,0,107.6, 6, 1.3,0,0,1024,1024,1024,1024,0,0,0,0,102.8,0,0,83,4.118,4.104,0,0,0,0,3.978,86.36,283.43243131393,15.748032,6,P-GPS,
226500,2023-04-01 05:26:44,35.8244875034635,14.4415535847233,15.748032,,,283.43243131393,15.091864,0,1.84896331376,3.15959983864,24,5,8.204,283.43243131393,15.748032,0.223694,1.97363523376,0,0,0,107.6, 6, 0.9,0,0,1024,1024,1024,1024,0,0,0,0,102.8,0,0,83,4.115,4.101,0,0,0,0,4.113,86.54,283.43243131393,15.748032,6,P-GPS,
226600,2023-04-01 05:26:44,35.824487461378,14.4415535782052,15.748032,,,283.43243131393,15.091864,0,1.8484580644,3.17507556092,24,5,8.204,283.43243131393,15.748032,0.223694,1.97363523376,0,0,0,107.6, 6.1, 0.8,0,0,1024,1024,1024,1024,0,0,0,0,102.8,0,0,83,4.115,4.101,0,0,0,0,4.113,86.54,283.43243131393,15.748032,6,P-GPS,
226700,2023-04-01 05:26:45,35.8244873921854,14.4415535603929,15.748032,,,283.43243131393,15.091864,0,1.84582683072,3.20086296332,24,5,8.204,283.43243131393,15.748032,0.223694,1.97363523376,0,0,0,107.6, 5.8, 1,0,0,1024,1024,1024,1024,0,0,0,0,102.8,0,0,83,4.115,4.101,0,0,0,0,4.113,86.54,283.43243131393,15.748032,6,P-GPS,
226800,2023-04-01 05:26:45,35.8244873663306,14.4415535702151,15.748032,,,283.43243131393,15.091864,0,1.84977696208,3.21073501088,24,5,8.204,283.43243131393,15.748032,0.223694,1.97363523376,0,0,0,107.7, 6, 0.7,0,0,1024,1024,1024,1024,0,0,0,0,102.8,0,0,83,4.115,4.101,0,0,0,0,4.113,86.54,283.43243131393,15.748032,6,P-GPS,
226900,2023-04-01 05:26:45,35.8244872722253,14.4415535754102,15.748032,,,283.43243131393,15.091864,0,1.85556436384,3.24510180988,24,5,8.204,283.43243131393,15.748032,0.223694,1.97363523376,0,0,0,107.7, 6.1, 0.2,0,0,1024,1024,1024,1024,0,0,0,0,102.8,0,0,83,4.115,4.101,0,0,0,0,4.113,86.54,283.43243131393,15.748032,6,P-GPS,
227000,2023-04-01 05:26:45,35.8244871423626,14.441553584153,15.748032,,,283.43243131393,15.091864,0.223694,1.86501974472,3.2925525988,24,5,8.204,283.43243131393,15.748032,0.223694,1.97363523376,-0.223694,0,0,107.7, 6.1, 0,0,0,1024,1024,1024,1024,0,0,0,0,102.8,0,0,83,4.115,4.101,0,0,0,0,4.113,86.54,283.43243131393,15.748032,6,P-GPS,
227100,2023-04-01 05:26:45,35.8244870029108,14.4415534632164,15.748032,,,283.43243131393,15.091864,0.223694,1.83857945516,3.3547573252,24,5,8.204,283.43243131393,15.748032,0.223694,1.97363523376,-0.223694,0,0,107.7, 6.7, -1.5,0,0,1024,1024,1024,1024,0,0,0,0,102.8,0,0,83,4.115,4.101,0,0,0,0,4.113,86.54,283.43243131393,15.748032,6,P-GPS,
227200,2023-04-01 05:26:45,35.8244869025429,14.4415534018038,15.748032,,,283.43243131393,15.091864,0.223694,1.82803811624,3.3956365916,24,5,8.204,283.43243131393,15.748032,0.223694,1.97363523376,-0.223694,0,0,107.6, 6.5, -1.8,0,0,1024,1024,1024,1024,0,0,0,0,102.8,0,0,83,4.115,4.101,0,0,0,0,4.113,86.54,283.43243131393,15.748032,6,P-GPS,
227300,2023-04-01 05:26:45,35.8244867999208,14.441553353953,15.748032,,,283.43243131393,15.091864,0.223694,1.82245084572,3.4356628396,24,5,8.204,283.43243131393,15.748032,0.223694,1.97363523376,-0.223694,0,0,107.6, 6.3, -2.3,0,0,1024,1024,1024,1024,0,0,0,0,102.8,0,0,83,4.115,4.101,0,0,0,0,4.113,86.54,283.43243131393,15.748032,6,P-GPS,
227400,2023-04-01 05:26:45,35.8244867053192,14.4415532946502,15.748032,,,283.43243131393,15.091864,0.223694,1.8137139688,3.4743767516,24,5,8.204,283.43243131393,15.748032,0.223694,1.97363523376,-0.223694,0,0,107.4, 5.9, -2.5,0,0,1024,1024,1024,1024,0,0,0,0,102.8,0,0,83,4.115,4.101,0,0,0,0,4.113,86.54,283.43243131393,15.748032,6,P-GPS,
227500,2023-04-01 05:26:45,35.8244865464518,14.4415532650928,15.748032,,,283.43243131393,15.091864,0,1.82069231548,3.5330053624,24,5,8.196,283.43243131393,15.748032,0.223694,1.97363523376,0,0,0,107.4, 5.4, -2.2,0,0,1024,1024,1024,1024,0,0,0,0,102.8,0,0,83,4.112,4.095,0,0,0,0,4.269,86.54,283.43243131393,15.748032,6,P-GPS,
227600,2023-04-01 05:26:45,35.8244864621461,14.4415532100302,15.748032,,,283.43243131393,15.091864,0,1.81403221028,3.5678150748,24,5,8.196,283.43243131393,15.748032,0.223694,1.97363523376,0,0,0,107.5, 4.7, -2,0,0,1024,1024,1024,1024,0,0,0,0,102.8,0,0,83,4.112,4.095,0,0,0,0,4.269,86.54,283.43243131393,15.748032,6,P-GPS,
227700,2023-04-01 05:26:45,35.8244864136217,14.441553164278,15.748032,,,283.43243131393,15.091864,0,1.80653549088,3.5900919784,24,5,8.196,283.43243131393,15.748032,0.223694,1.97363523376,0,0,0,107.6, 4.9, -2.5,0,0,1024,1024,1024,1024,0,0,0,0,102.8,0,0,83,4.112,4.095,0,0,0,0,4.269,86.54,283.43243131393,15.748032,6,P-GPS,
227800,2023-04-01 05:26:46,35.8244863867068,14.4415531277181,15.419948,,,283.10434731393,15.091864,0,1.7993438896,3.6046917164,24,5,8.196,283.43243131393,15.748032,0.223694,1.97363523376,0,0,0,107.2, 4.8, -2.5,0,0,1024,1024,1024,1024,0,0,0,0,102.8,0,0,83,4.112,4.095,0,0,0,0,4.269,86.54,283.10434731393,15.419948,6,P-GPS,
227900,2023-04-01 05:26:46,35.8244864112535,14.4415530424628,15.419948,,,283.10434731393,15.091864,0,1.77258535856,3.6314633708,24,5,8.196,283.43243131393,15.748032,0.223694,1.97363523376,0,0,0,107.3, 4.5, -1.2,0,0,1024,1024,1024,1024,0,0,0,0,102.8,0,0,83,4.112,4.095,0,0,0,0,4.269,86.54,283.10434731393,15.419948,6,P-GPS,
228000,2023-04-01 05:26:46,35.8244865021732,14.4415529027425,15.091864,,,282.77626331393,15.091864,0,1.72297249608,3.6844489368,24,5,8.196,283.43243131393,15.748032,0.223694,1.97363523376,0,0,0,107.4, 4.5, -0.3,0,0,1024,1024,1024,1024,0,0,0,0,102.8,0,0,83,4.112,4.095,0,0,0,0,4.269,86.54,282.77626331393,15.091864,6,P-GPS,
228100,2023-04-01 05:26:46,35.824486587636,14.4415528759589,15.091864,,,282.77626331393,15.091864,0,1.70609257428,3.7166339772,24,5,8.196,283.43243131393,15.748032,0.223694,1.97363523376,0,0,0,107.2, 4.5, -0.1,0,0,1024,1024,1024,1024,0,0,0,0,102.8,0,0,83,4.112,4.095,0,0,0,0,4.269,86.54,282.77626331393,15.091864,6,P-GPS,
228200,2023-04-01 05:26:46,35.824486694343,14.4415528672742,14.76378,,,282.44817931393,15.091864,0.223694,1.69268706204,3.7556431648,24,5,8.196,283.43243131393,15.748032,0.223694,1.97363523376,0.223694,0,0,107.4, 5, 1.1,0,0,1024,1024,1024,1024,0,0,0,0,102.8,0,0,83,4.112,4.095,0,0,0,0,4.269,86.54,282.44817931393,14.76378,6,P-GPS,
228300,2023-04-01 05:26:46,35.824486781604,14.4415528793988,14.76378,,,282.44817931393,15.091864,0.223694,1.68782157632,3.7876969716,24,5,8.196,283.43243131393,15.748032,0.223694,1.97363523376,0.223694,0,0,107.4, 4.9, 1.7,0,0,1024,1024,1024,1024,0,0,0,0,102.8,0,0,83,4.112,4.095,0,0,0,0,4.269,86.54,282.44817931393,14.76378,6,P-GPS,
228400,2023-04-01 05:26:46,35.8244868710911,14.4415529376238,14.76378,,,282.44817931393,15.091864,0,1.69662407004,3.8246064216,24,5,8.196,283.43243131393,15.748032,0.223694,1.97363523376,0,0,0,107.5, 5, 2.4,0,0,1024,1024,1024,1024,0,0,0,0,102.8,0,0,83,4.112,4.095,0,0,0,0,4.269,86.54,282.44817931393,14.76378,6,P-GPS,
228500,2023-04-01 05:26:46,35.8244869392252,14.4415529306095,14.76378,,,282.44817931393,14.76378,0,1.68900595956,3.8495408056,24,5,8.207,283.43243131393,15.748032,0.223694,1.97363523376,0,0,0,107.6, 5, 1.2,0,0,1024,1024,1024,1024,0,0,0,0,102.8,0,0,83,4.113,4.098,0,0,0,0,4.107,86.54,282.44817931393,14.76378,6,P-GPS,
228600,2023-04-01 05:26:46,35.8244869937414,14.4415529235931,14.76378,,,282.44817931393,14.76378,0,1.68274611684,3.8695539296,24,5,8.207,283.43243131393,15.748032,0.223694,1.97363523376,0,0,0,107.6, 4.8, 0.4,0,0,1024,1024,1024,1024,0,0,0,0,102.8,0,0,83,4.113,4.098,0,0,0,0,4.107,86.54,282.44817931393,14.76378,6,P-GPS,
228700,2023-04-01 05:26:47,35.8244870552795,14.441552939486,14.76378,,,282.44817931393,14.76378,0,1.68284782288,3.8924870012,24,5,8.207,283.43243131393,15.748032,0.223694,1.97363523376,0,0,0,107.4, 5.5, 1.7,0,0,1024,1024,1024,1024,0,0,0,0,102.8,0,0,83,4.113,4.098,0,0,0,0,4.107,86.54,282.44817931393,14.76378,6,P-GPS,
228800,2023-04-01 05:26:47,35.8244871579708,14.4415529655,14.76378,,,282.44817931393,14.76378,0,1.68356632684,3.9307415956,24,5,8.207,283.43243131393,15.748032,0.223694,1.97363523376,0,0,0,107.5, 5, 1.4,0,0,1024,1024,1024,1024,0,0,0,0,102.8,0,0,83,4.113,4.098,0,0,0,0,4.107,86.54,282.44817931393,14.76378,6,P-GPS,
228900,2023-04-01 05:26:47,35.8244871257769,14.4415529614051,14.76378,,,282.44817931393,14.76378,0,1.68442918776,3.9425526196,24,5,8.207,283.43243131393,15.748032,0.223694,1.97363523376,0,0,0,107.6, 4.6, 0.5,0,0,1024,1024,1024,1024,0,0,0,0,102.8,0,0,83,4.113,4.098,0,0,0,0,4.107,86.54,282.44817931393,14.76378,6,P-GPS,
229000,2023-04-01 05:26:47,35.8244870537097,14.4415529374369,14.76378,,,282.44817931393,14.76378,0,1.6823655394,3.9697835916,24,5,8.207,283.43243131393,15.748032,0.223694,1.97363523376,0,0,0,107.6, 4.3, -0.5,0,0,1024,1024,1024,1024,0,0,0,0,102.8,0,0,83,4.113,4.098,0,0,0,0,4.107,86.54,282.44817931393,14.76378,6,P-GPS,
229100,2023-04-01 05:26:47,35.8244869873164,14.4415529057495,14.76378,,,282.44817931393,14.76378,0,1.67807091984,3.995735036,24,5,8.207,283.43243131393,15.748032,0.223694,1.97363523376,0,0,0,107.6, 4.5, -1.3,0,0,1024,1024,1024,1024,0,0,0,0,102.8,0,0,83,4.113,4.098,0,0,0,0,4.107,86.54,282.44817931393,14.76378,6,P-GPS,
229200,2023-04-01 05:26:47,35.8244868699866,14.441552903597,14.76378,,,282.44817931393,15.091864,0,1.68692918784,4.038549998,24,5,8.207,283.43243131393,15.748032,0.223694,1.97363523376,0,0,0,107.4, 4.2, -1.6,0,0,1024,1024,1045,1024,0,0,3,0,102.8,0,0,83,4.113,4.098,0,0,0,0,4.107,86.54,282.44817931393,14.76378,6,P-GPS,
229300,2023-04-01 05:26:47,35.8244868849776,14.4415529274552,14.76378,,,282.44817931393,15.091864,0,1.69252958172,4.0474738828,24,5,8.207,283.43243131393,15.748032,0.223694,1.97363523376,0,0,0,107.5, 4.7, -0.3,0,0,1024,1024,1045,1024,0,0,3,0,102.8,0,0,83,4.113,4.098,0,0,0,0,4.107,86.54,282.44817931393,14.76378,6,P-GPS,
229400,2023-04-01 05:26:47,35.8244869150114,14.4415529696411,14.76378,,,282.44817931393,15.091864,0,1.7022146214,4.0641077416,24,5,8.207,283.43243131393,15.748032,0.223694,1.97363523376,0,0,0,107.6, 4.7, 0.2,0,0,1024,1024,1222,1024,0,0,30,0,102.8,0,0,83,4.113,4.098,0,0,0,0,4.107,86.54,282.44817931393,14.76378,6,P-GPS,
229500,2023-04-01 05:26:47,35.8244869077205,14.4415529526365,14.76378,,,282.44817931393,15.091864,0,1.69790359764,4.0697835948,24,5,8.19,283.43243131393,15.748032,0.223694,1.97363523376,0,0,-0.223694,107.4, 4.1, 0.4,0,0,1024,1024,1252,1024,0,0,35,0,102.8,0,0,83,4.109,4.094,0,0,0,0,4.193,86.54,282.44817931393,14.76378,6,P-GPS,
229600,2023-04-01 05:26:47,35.8244868959318,14.4415529154987,14.76378,,,282.44817931393,15.091864,0,1.6881726262,4.0815946188,24,5,8.19,283.43243131393,15.748032,0.223694,1.97363523376,0,0,-0.447388,107.6, 4.6, 0.9,0,0,1024,1024,1259,1024,0,0,36,0,102.8,0,0,83,4.109,4.094,0,0,0,0,4.193,86.54,282.44817931393,14.76378,6,P-GPS,
229700,2023-04-01 05:26:48,35.8244869948032,14.4415530288795,15.091864,,,282.77626331393,15.091864,0,1.71314966112,4.1308400272,24,5,8.19,283.43243131393,15.748032,0.223694,1.97363523376,0,0,-0.671082,107.5, 4.6, 0.8,0,0,1024,1024,1259,1024,0,0,36,0,102.8,0,0,83,4.109,4.094,0,0,0,0,4.193,86.54,282.77626331393,15.091864,6,P-GPS,
229800,2023-04-01 05:26:48,35.8244870379712,14.441553070855,15.091864,,,282.77626331393,15.419948,0,1.72219821784,4.1508859596,24,5,8.19,283.43243131393,15.748032,0.223694,1.97363523376,0,0,-0.894776,107.5, 5, 0.6,0,0,1024,1024,1253,1024,0,0,35,0,102.8,0,0,83,4.109,4.094,0,0,0,0,4.193,86.54,282.77626331393,15.091864,6,P-GPS,
229900,2023-04-01 05:26:48,35.8244870543871,14.4415531226287,15.419948,,,283.10434731393,15.419948,0,1.7360892944,4.1673557764,24,5,8.19,283.43243131393,15.748032,0.223694,1.97363523376,0,0,-1.11847,107.5, 4.5, 0.2,0,0,1024,1024,1255,1024,0,0,35,0,102.8,0,0,83,4.109,4.094,0,0,0,0,4.193,86.54,283.10434731393,15.419948,6,P-GPS,
230000,2023-04-01 05:26:48,35.8244870602275,14.4415531686949,15.419948,,,283.10434731393,15.748032,0,1.7490814208,4.1811353044,24,5,8.19,283.43243131393,15.748032,0.223694,1.97363523376,0,0,-1.342164,107.5, 4.1, -0.1,0,0,1024,1024,1250,1024,0,0,34,0,102.8,0,0,83,4.109,4.094,0,0,0,0,4.193,86.54,283.10434731393,15.419948,6,P-GPS,
230100,2023-04-01 05:26:48,35.824487125829,14.4415532211025,15.748032,,,283.43243131393,15.748032,0,1.7600722348,4.209645804,24,5,8.19,283.43243131393,15.748032,0.223694,1.97363523376,0,0,-1.342164,107.6, 4.3, 0,0,0,1024,1024,1250,1024,0,0,34,0,102.8,0,0,83,4.109,4.094,0,0,0,0,4.193,86.54,283.43243131393,15.748032,6,P-GPS,
230200,2023-04-01 05:26:48,35.8244871459696,14.4415532131062,16.076116,,,283.76051531393,16.076116,0,1.75649940004,4.217355778,24,5,8.19,283.76051531393,16.076116,0.223694,1.97363523376,0,0,-1.342164,107.8, 4, -1.5,0,0,1024,1024,1250,1024,0,0,34,0,102.8,0,0,83,4.109,4.094,0,0,0,0,4.193,86.54,283.76051531393,16.076116,6,P-GPS,
230300,2023-04-01 05:26:48,35.8244871520624,14.4415533144835,16.076116,,,283.76051531393,16.076116,0,1.7857119994,4.2474410808,24,5,8.19,283.76051531393,16.076116,0.223694,1.97363523376,0,0,-1.342164,107.5, 4.2, -0.5,0,0,1024,1024,1249,1024,0,0,34,0,102.8,0,0,83,4.109,4.094,0,0,0,0,4.193,86.54,283.76051531393,16.076116,6,P-GPS,
230400,2023-04-01 05:26:48,35.8244871808276,14.4415534673321,16.4042,,,284.08859931393,16.4042,0,1.82869756508,4.2938649668,23,5,8.19,284.08859931393,16.4042,0.223694,1.97363523376,0,0,-1.342164,107.5, 4.8, 0.5,0,0,1024,1024,1247,1024,0,0,34,0,102.8,0,0,83,4.109,4.094,0,0,0,0,4.193,86.54,284.08859931393,16.4042,6,P-GPS,
230500,2023-04-01 05:26:48,35.8244872818347,14.4415538239739,16.732284,,,284.41668331393,16.732284,0,1.9280184344,4.4056103772,23,5,8.186,284.41668331393,16.732284,0.223694,1.97363523376,0,0,-1.342164,107.5, 4.8, 1.6,0,0,1024,1024,1247,1024,0,0,34,0,102.8,0,0,83,4.1,4.086,0,0,0,0,4.401,86.72,284.41668331393,16.732284,6,P-GPS,
230600,2023-04-01 05:26:48,35.8244873875305,14.4415539970876,17.060368,,,284.74476731393,16.732284,0,1.97445216292,4.4697179908,23,5,8.186,284.74476731393,17.060368,0.223694,1.97445216292,0,0,-1.342164,107.3, 5, 2.5,0,0,1024,1024,1237,1024,0,0,32,0,102.8,0,0,83,4.1,4.086,0,0,0,0,4.401,86.72,284.74476731393,17.060368,6,P-GPS,
230700,2023-04-01 05:26:49,35.824487468353,14.4415540720053,17.060368,,,284.74476731393,17.060368,0,1.99368116616,4.5065946324,23,5,8.186,284.74476731393,17.060368,0.223694,1.99368116616,0,0,-1.342164,107.5, 5.1, 2.3,0,0,1024,1024,1091,1024,0,0,10,0,102.8,0,0,83,4.1,4.086,0,0,0,0,4.401,86.72,284.74476731393,17.060368,6,P-GPS,
230800,2023-04-01 05:26:49,35.8244875454424,14.4415541371325,17.388452,,,285.07285131393,17.060368,0,2.0106135814,4.5407153684,23,5,8.186,285.07285131393,17.388452,0.223694,2.0106135814,0,0,-1.342164,107.4, 5.2, 2.5,0,0,1024,1024,1024,1024,0,0,0,0,102.8,0,0,83,4.1,4.086,0,0,0,0,4.401,86.72,285.07285131393,17.388452,6,P-GPS,
230900,2023-04-01 05:26:49,35.8244876451235,14.4415541389524,17.716536,,,285.40093531393,17.388452,0,2.00881240024,4.5770670756,23,5,8.186,285.40093531393,17.716536,0.223694,2.0106135814,0,0,-0.894776,107.5, 6.1, 3.3,0,0,1024,1024,1024,1024,0,0,0,0,102.8,0,0,83,4.1,4.086,0,0,0,0,4.401,86.72,285.40093531393,17.716536,6,P-GPS,
231000,2023-04-01 05:26:49,35.8244877259082,14.4415542648417,17.716536,,,285.40093531393,17.388452,0,2.04460964548,4.6245736388,23,5,8.186,285.40093531393,17.716536,0.223694,2.04460964548,0,0,-0.447388,107.5, 5.8, 3.3,0,0,1024,1024,880,1024,0,0,-22,0,102.8,0,0,83,4.1,4.086,0,0,0,0,4.401,86.72,285.40093531393,17.716536,6,P-GPS,
231100,2023-04-01 05:26:49,35.8244877645996,14.4415543200546,17.716536,,,285.40093531393,17.388452,0,2.0604167326,4.646161566,23,5,8.186,285.40093531393,17.716536,0.223694,2.0604167326,0,0,-0.223694,107.6, 5.7, 3.3,0,0,1024,1024,880,1024,0,0,-22,0,102.8,0,0,83,4.1,4.086,0,0,0,0,4.401,86.72,285.40093531393,17.716536,6,P-GPS,
231200,2023-04-01 05:26:49,35.8244877824209,14.4415543485828,17.716536,,,285.40093531393,17.388452,0,2.068651641,4.656824296,23,5,8.186,285.40093531393,17.716536,0.223694,2.068651641,0,0,0,107.7, 5.5, 2.6,0,0,1024,1024,710,1024,0,0,-48,0,102.8,0,0,83,4.1,4.086,0,0,0,0,4.401,86.72,285.40093531393,17.716536,6,P-GPS,
231300,2023-04-01 05:26:49,35.8244877688555,14.4415543682877,17.716536,,,285.40093531393,17.388452,0,2.07462933148,4.6644686532,23,5,8.186,285.40093531393,17.716536,0.223694,2.07462933148,0,0,0.223694,107.6, 6.1, 2.6,0,0,1024,1024,721,1024,0,0,-46,0,102.8,0,0,83,4.1,4.086,0,0,0,0,4.401,86.72,285.40093531393,17.716536,6,P-GPS,
231400,2023-04-01 05:26:49,35.8244876583729,14.4415542775613,17.388452,,,285.07285131393,17.388452,0,2.04949809708,4.7128938516,23,5,8.186,285.40093531393,17.716536,0.223694,2.07462933148,0,0,1.11847,107.7, 4.3, 2.4,0,0,1024,1024,1024,1024,0,0,0,0,102.8,0,0,83,4.1,4.086,0,0,0,0,4.401,86.72,285.07285131393,17.388452,6,P-GPS,
231500,2023-04-01 05:26:49,35.8244876659204,14.4415542980824,17.060368,,,284.74476731393,17.060368,0,2.05542001328,4.7195539568,23,5,8.186,285.40093531393,17.716536,0.223694,2.07462933148,0,0,1.342164,107.6, 2.4, 1.7,0,0,1024,1024,1024,1024,0,0,0,0,102.8,0,0,83,4.1,4.086,0,0,0,0,4.401,86.72,284.74476731393,17.060368,6,P-GPS,
231600,2023-04-01 05:26:49,35.8244876488795,14.4415543346558,16.732284,,,284.41668331393,16.732284,0,2.06654534172,4.7320211488,24,5,8.235,285.40093531393,17.716536,0.223694,2.07462933148,0,0,0.894776,107.6, 4.3, 1.8,0,0,1024,1024,1024,1024,0,0,0,0,102.8,0,0,83,4.115,4.1,0,0,0,0,3.927,86.72,284.41668331393,16.732284,6,P-GPS,
231700,2023-04-01 05:26:50,35.8244875590525,14.4415543523086,16.732284,,,284.41668331393,16.732284,0,2.07375662804,4.7652232496,24,5,8.235,285.40093531393,17.716536,0.223694,2.07462933148,0,0,0.671082,107.4, 6.5, 0,0,0,1024,1024,1024,1024,0,0,0,0,102.8,0,0,83,4.115,4.1,0,0,0,0,3.927,86.72,284.41668331393,16.732284,6,P-GPS,
231800,2023-04-01 05:26:50,35.8244874598741,14.4415543191162,16.4042,,,284.08859931393,16.732284,0,2.06677500052,4.8027232508,24,5,8.235,285.40093531393,17.716536,0.223694,2.07462933148,0,0,0.447388,107.6, 6.9, 0.5,0,0,1024,1024,1024,1024,0,0,0,0,102.8,0,0,83,4.115,4.1,0,0,0,0,3.927,86.72,284.08859931393,16.4042,6,P-GPS,
231900,2023-04-01 05:26:50,35.8244874163336,14.4415542642894,16.4042,,,284.08859931393,16.732284,0,2.05206043312,4.8254266636,24,5,8.235,285.40093531393,17.716536,0.223694,2.07462933148,0,0,0.223694,107.3, 5.3, -0.7,0,0,1024,1024,1024,1024,0,0,0,0,102.8,0,0,83,4.115,4.1,0,0,0,0,3.927,86.72,284.08859931393,16.4042,6,P-GPS,
232000,2023-04-01 05:26:50,35.8244873996559,14.4415541825693,16.4042,,,284.08859931393,16.732284,0,2.02858930376,4.8503282392,24,5,8.235,285.40093531393,17.716536,0.223694,2.07462933148,0,0,0,107.3, 5.2, 0,0,0,1024,1024,1024,1024,0,0,0,0,102.8,0,0,83,4.115,4.1,0,0,0,0,3.927,86.72,284.08859931393,16.4042,6,P-GPS,
232100,2023-04-01 05:26:50,35.8244874000618,14.4415541402117,16.4042,,,284.08859931393,16.732284,0,2.01610570756,4.862861048,24,5,8.235,285.40093531393,17.716536,0.223694,2.07462933148,0,0,0,107.5, 5.3, 0,0,0,1024,1024,1024,1024,0,0,0,0,102.8,0,0,83,4.115,4.1,0,0,0,0,3.927,86.72,284.08859931393,16.4042,6,P-GPS,
232200,2023-04-01 05:26:50,35.824487504739,14.4415541021749,16.4042,,,284.08859931393,16.732284,0,2.00145019528,4.9026904456,24,5,8.235,285.40093531393,17.716536,0.223694,2.07462933148,0,0,0,107.5, 5.1, -0.4,0,0,1024,1024,1024,1024,0,0,0,0,102.8,0,0,83,4.115,4.1,0,0,0,0,3.927,86.72,284.08859931393,16.4042,6,P-GPS,
232300,2023-04-01 05:26:50,35.8244874608028,14.4415540542264,16.4042,,,284.08859931393,16.732284,0,1.98868772768,4.9240815224,24,5,8.235,285.40093531393,17.716536,0.223694,2.07462933148,0,0,0,107.6, 5, -1.1,0,0,1024,1024,1024,1024,0,0,0,0,102.8,0,0,83,4.115,4.1,0,0,0,0,3.927,86.72,284.08859931393,16.4042,6,P-GPS,
232400,2023-04-01 05:26:50,35.824487418359,14.4415539992477,16.4042,,,284.08859931393,16.732284,0,1.9739501944,4.9465552764,24,5,8.235,285.40093531393,17.716536,0.223694,2.07462933148,0,0,0,107.5, 4.5, -0.4,0,0,1024,1024,1024,1024,0,0,0,0,102.8,0,0,83,4.115,4.1,0,0,0,0,3.927,86.72,284.08859931393,16.4042,6,P-GPS,
232500,2023-04-01 05:26:50,35.8244873992757,14.4415539913237,16.4042,,,284.08859931393,16.732284,0,1.97231305524,4.953904358,24,5,8.235,285.40093531393,17.716536,0.223694,2.07462933148,0,0,0,107.5, 5.1, 0,0,0,1024,1024,1024,1024,0,0,0,0,102.8,0,0,83,4.115,4.1,0,0,0,0,3.927,86.72,284.08859931393,16.4042,6,P-GPS,
232600,2023-04-01 05:26:50,35.8244873131057,14.4415540509906,16.732284,,,284.41668331393,16.732284,0,1.99329402704,4.9899607896,24,5,8.189,285.40093531393,17.716536,0.223694,2.07462933148,0,0,0,107.7, 4.7, 0,0,0,1024,1024,1024,1024,0,0,0,0,102.8,0,0,83,4.104,4.088,0,0,0,0,3.915,86.72,284.41668331393,16.732284,6,P-GPS,
232700,2023-04-01 05:26:51,35.8244873092903,14.4415540904291,16.732284,,,284.41668331393,16.732284,0,2.00504271508,5.0017061968,24,5,8.189,285.40093531393,17.716536,0.223694,2.07462933148,0,0,0,107.6, 5.8, 0,0,0,1024,1024,1024,1024,0,0,0,0,102.8,0,0,83,4.104,4.088,0,0,0,0,3.915,86.72,284.41668331393,16.732284,6,P-GPS,
232800,2023-04-01 05:26:51,35.8244872957543,14.4415541563681,16.732284,,,284.41668331393,16.732284,0,2.02499350312,5.021817746,24,5,8.189,285.40093531393,17.716536,0.223694,2.07462933148,0,0,0,107.5, 6.3, -0.7,0,0,1024,1024,1024,1024,0,0,0,0,102.8,0,0,83,4.104,4.088,0,0,0,0,3.915,86.72,284.41668331393,16.732284,6,P-GPS,
